state,city,address,postal_code,phone_number,latitude,longitude
Alabama,Athens,1289 US Highway 72 E,35611,(256) 867-2327,34.78535934639692,-86.94589462768734
Alabama,Auburn,346 W Magnolia Ave,36832,(334) 821-7740,32.606812966051244,-85.48732833164195
Alabama,Birmingham,300 20th St S,35233,(205) 326-8572,33.509721495414745,-86.80275567068401
Alabama,Birmingham,3220 Morrow Rd,35235,(205) 655-3734,33.59558141391436,-86.64743684970284
Alabama,Birmingham,4719 Highway 280,35242,(205) 991-4846,33.42258214624579,-86.69827946502971
Alabama,Birmingham,5342 Highway 280,35242,(659) 272-0321,33.4190918,-86.6744839
Alabama,Cullman,1821 Cherokee Ave SW,35055,(256) 727-5348,34.154133767344916,-86.84122007667406
Alabama,Daphne,914 Van Ave,36526,(251) 426-7633,30.597490456498328,-87.89898115761713
Alabama,Decatur,1109 Beltline Rd SE,35601,(256) 280-3833,34.5614662,-86.9756546
Alabama,Dothan,3473 Ross Clark Drive,36303,(334) 340-1105,31.24643258273472,-85.42845362334822
Alabama,Florence,311 Cox Creek Pkwy,35630,(256) 956-4670,34.8367631,-87.6315278
Alabama,Foley,2862 S. McKenzie Street,36536,(251) 943-2500,30.372761,-87.683311
Alabama,Gardendale,616 Gayle St,35071,(659) 246-1040,33.651179,-86.825568
Alabama,Homewood,273 Lakeshore Pkwy,35209,(205) 203-1062,33.44560101843525,-86.82538206989966
Alabama,Hoover,1051 Amber Dr,35244,(205) 203-1028,33.3785141,-86.82327269999999
Alabama,Hoover,1759 Montgomery Hwy,35244,(205) 982-4833,33.37895802956859,-86.80380210088629
Alabama,Huntsville,5900 University Dr NW,35806,(256) 895-7761,34.7423160647275,-86.66577473182507
Alabama,Madison,101 Outfield Dr,35758,(256) 617-5312,34.684399,-86.717916
Alabama,Madison,8294 Highway 72 W,35758,(256) 929-6632,34.750647294909975,-86.7611874285552
Alabama,Mobile,3871 Airport Blvd,36608,(251) 206-6548,30.675337809949887,-88.143753929995
Alabama,Mobile,7765 Airport Blvd,36608,(251) 639-9241,30.682695916631477,-88.22501248665195
Alabama,Montgomery,2560 Berryhill Rd,36117,(334) 450-2888,32.35917687650774,-86.16225285227608
Alabama,Opelika,2125 Interstate Dr,36801,(334) 737-0056,32.616808752194316,-85.40447876717928
Alabama,Oxford,30 Commons Way,36203,(256) 848-1007,33.608458514136515,-85.7867789298938
Alabama,Prattville,2566 Cobbs Ford Rd,36066,(334) 285-0040,32.459169,-86.391343
Alabama,Tuscaloosa,1203 University Blvd,35401,(205) 391-2121,33.21066866513092,-87.55362088910408
Alabama,Tuscaloosa,1800 McFarland Blvd E,35404,(205) 391-0140,33.19676916228953,-87.52703202203561
Alabama,Vestavia Hills,1031 Montgomery Hwy,35216,(205) 823-1053,33.439069161673594,-86.78828456747647
Arizona,Avondale,9925 W McDowell Rd,85392,(623) 907-1122,33.464389688565106,-112.27317616931153
Arizona,Buckeye,944 S Watson Rd,85326,(623) 691-6919,33.43822778341178,-112.55837977052872
Arizona,Casa Grande,1775 E Florence Blvd,85122,(520) 421-4457,32.8791300574308,-111.71123532758008
Arizona,Cave Creek,5355 E Carefree Hwy,85331,(602) 325-3394,33.798760042857715,-111.96635746382505
Arizona,Chandler,1055 W Chandler Blvd,85224,(602) 742-3574,33.30549462745462,-111.86011763369193
Arizona,Chandler,2895 S Alma School Rd,85286,(480) 786-1122,33.2639222376452,-111.85726059752221
Arizona,Chandler,3395 W Chandler Blvd,85226,(480) 499-2884,33.30528109389568,-111.89998219286281
Arizona,Chandler,890 N 54th St,85226,(480) 783-0200,33.317420390822654,-111.96882761900793
Arizona,Flagstaff,1111 S Plaza Way,86001,(928) 774-4254,35.18986,-111.661643
Arizona,Flagstaff,4409 N US Highway 89,86004,(928) 433-3844,35.22332797052031,-111.58526951285657
Arizona,Gilbert,1084 S Gilbert Rd,85296,(480) 892-8307,33.32988022270755,-111.79089592376448
Arizona,Gilbert,1546 N Cooper Rd,85233,(480) 632-1875,33.37792420216465,-111.80763961039872
Arizona,Gilbert,2224 E Williams Field Rd,85295,(602) 429-2162,33.30783135227586,-111.74280506193034
Arizona,Gilbert,3757 S Gilbert Rd,85297,(480) 963-8585,33.28188695150705,-111.78889024926309
Arizona,Gilbert,3785 S Val Vista Dr,85297,(928) 701-6051,33.28174926610554,-111.75468798648177
Arizona,Glendale,20004 N 67th Ave,85308,(623) 240-1289,33.66586688567123,-112.20341053026442
Arizona,Glendale,5849 W Northern Ave,85301,(623) 215-0173,33.552412562708156,-112.18544568239622
Arizona,Glendale,5880 W Thunderbird Rd,85306,(602) 504-2776,33.61131275531313,-112.18452254968548
Arizona,Glendale,7700 W Arrowhead Towne Ctr,85308,(623) 240-2694,33.641830668399315,-112.22529981458467
Arizona,Glendale,9405 W Glendale Ave,85305,(623) 239-4906,33.53689036221647,-112.26094486330905
Arizona,Goodyear,1560 N Litchfield Rd,85395,(623) 536-0025,33.463806634713315,-112.35866282944778
Arizona,Goodyear,655 S Cotton Ln,85338,(602) 601-2987,33.4394938,-112.4268431
Arizona,Green Valley,18725 S Nogales Hwy,85614,(520) 468-6356,31.909951,-110.9799733
Arizona,Kingman,3455 N Stockton Hill Rd,86409,(928) 757-2610,35.22399203679119,-114.03705752131305
Arizona,Lake Havasu City,55 Lake Havasu Ave S,86403,(928) 680-0540,34.47168615086052,-114.34267294474495
Arizona,Laveen,5130 W Baseline Rd,85339,(602) 777-5072,33.379389711654824,-112.16905083754398
Arizona,Marana,5940 W Arizona Pavillions Dr,85743,(520) 744-5012,32.354884717102536,-111.09165199846211
Arizona,Maricopa,21423 N John Wayne Pkwy,85139,(520) 374-0331,33.07352392871503,-112.04274078834322
Arizona,Mesa,1229 E McKellips Rd,85203,(480) 833-6547,33.451019327889625,-111.80313939936569
Arizona,Mesa,1335 S Alma School Rd,85210,(480) 833-0717,33.38960599017438,-111.85682718956662
Arizona,Mesa,1411 S Power Rd,85206,(480) 807-0477,33.38985461122482,-111.68395069882871
Arizona,Mesa,1955 S Signal Butte Rd,85209,(480) 499-9636,33.37942481813418,-111.60094897883607
Arizona,Mesa,2849 N Power Rd,85215,(480) 265-4916,33.46790531239631,-111.68346853282071
Arizona,Mesa,3440 E Baseline Rd,85204,(480) 822-6622,33.37966761390607,-111.75581290980438
Arizona,Mesa,4984 S Power Rd,85212,(480) 988-6935,33.32550687825606,-111.6875981837469
Arizona,Mesa,9259 E. Ray Road,85212,(480) 520-6775,33.3214659,-111.6321079
Arizona,Nogales,337 W Mariposa Rd,85621,(520) 839-0133,31.36627384478192,-110.93666202592973
Arizona,Oro Valley,10604 N Oracle Rd,85737,(520) 797-5510,32.3987337,-110.9557397
Arizona,Payson,108 S Beeline Hwy,85541,(928) 267-0745,34.23940128234288,-111.3236345160877
Arizona,Peoria,16680 N 83rd Ave,85382,(623) 487-1907,33.63626807976065,-112.23411100604244
Arizona,Peoria,28576 N El Mirage Rd,85383,(602) 669-9476,33.74181955217287,-112.32317113119414
Arizona,Peoria,9940 W Happy Valley Pkwy,85383,(623) 362-1252,33.711451,-112.273128
Arizona,Phoenix,11 W Washington St,85003,(602) 513-5751,33.44810001399615,-112.07450891917203
Arizona,Phoenix,1515 N 7th Ave,85007,(602) 314-8127,33.46554843258087,-112.0823849754916
Arizona,Phoenix,1660 E Camelback Rd,85016,(602) 274-4455,33.51037506402035,-112.04622043510204
Arizona,Phoenix,16635 N Tatum Blvd,85032,(602) 992-0432,33.63818544112361,-111.97738650921002
Arizona,Phoenix,1818 W Bethany Home Rd,85015,(623) 207-7338,33.5243797,-112.0986855
Arizona,Phoenix,1838 W Baseline Rd,85041,(480) 520-4470,33.3777629,-112.0975448
Arizona,Phoenix,21001 N Tatum Blvd,85050,(480) 473-5019,33.67474793839745,-111.97526479938048
Arizona,Phoenix,2415 E Baseline Rd,85042,(602) 283-9500,33.37724065500963,-112.02990183545892
Arizona,Phoenix,2450 W Bell Rd,85023,(602) 354-3877,33.640372836488105,-112.1122786414017
Arizona,Phoenix,2470 W Happy Valley Rd,85085,(623) 215-0900,33.714789543328116,-112.11303150518675
Arizona,Phoenix,3009 W Agua Fria Fwy,85027,(480) 285-0923,33.66665768531911,-112.12322165701374
Arizona,Phoenix,3039 W Peoria Ave,85029,(602) 944-5060,33.581530994407736,-112.12515731554271
Arizona,Phoenix,3125 E Indian School Rd,85016,(602) 957-5080,33.49495085405304,-112.01463337627501
Arizona,Phoenix,3185 E Bell Rd,85032,(480) 618-4174,33.63859900338824,-111.99906302367391
Arizona,Phoenix,4111 E Chandler Blvd,85048,(480) 759-4820,33.30479751662666,-111.99361395337297
Arizona,Phoenix,425 E Bell Rd,85022,(602) 441-0740,33.63993406534886,-112.06746827976605
Arizona,Phoenix,4423 E. Thomas Road,85018,(602) 522-2394,33.47971018719496,-111.98621165153793
Arizona,Phoenix,4622 E Cactus Rd,85032,(602) 283-3941,33.59949685496199,-111.98174381043337
Arizona,Phoenix,4705 E Broadway Rd,85040,(602) 431-1645,33.406421,-111.979649
Arizona,Phoenix,52 E Camelback Road,85012,(602) 200-9416,33.50968977590201,-112.07169147254652
Arizona,Phoenix,7427 W Thomas Rd,85033,(623) 240-1662,33.479676480750506,-112.21983422329617
Arizona,Prescott,351 N Montezuma St,86301,(928) 778-0525,34.54663162772478,-112.46924604662706
Arizona,Prescott Valley,5791 E State Route 69,86314,(928) 277-8299,34.578132604857586,-112.36259867771062
Arizona,Queen Creek,170 W Ocotillo,85140,(480) 903-5286,33.249137,-111.567125
Arizona,Queen Creek,21172 S Ellsworth Loop Rd,85142,(480) 214-9200,33.256185336370194,-111.63888845969365
Arizona,San Tan Valley,1371 W Hunt Hwy,85143,(480) 870-5311,33.175902,-111.58097
Arizona,Scottsdale,11015 N Scottsdale Rd,85254,(480) 951-4555,33.58595737304114,-111.92558185222026
Arizona,Scottsdale,15035 N Thompson Peak Pkwy,85260,(480) 661-5650,33.622401247673174,-111.873954738914
Arizona,Scottsdale,15425 N Scottsdale Rd,85254,(480) 367-1218,33.6262957,-111.9248201
Arizona,Scottsdale,20851 N Scottsdale Rd,85255,(480) 397-4092,33.67624139841698,-111.92401394661744
Arizona,Scottsdale,2805 N Scottsdale Rd,85257,(480) 404-6296,33.479336912764616,-111.92576791791788
Arizona,Scottsdale,4513 N Scottsdale Rd,85251,(480) 684-1090,33.50337052422998,-111.92569464601536
Arizona,Scottsdale,7014 E Camelback Rd,85251,(480) 941-4786,33.50399472511519,-111.92985740478647
Arizona,Scottsdale,8099 E McDowell Rd,85257,(602) 830-4644,33.4653577,-111.9073883
Arizona,Scottsdale,9010 E Talking Stick Way,85250,(480) 270-5370,33.5386903,-111.8876449
Arizona,Scottsdale,9301 E Shea Blvd,85260,(480) 860-6901,33.58028500000003,-111.88103432944774
Arizona,Sedona,361 Forest Rd,86336,(928) 282-5800,34.8684072035899,-111.76191730343372
Arizona,Sierra Vista,480 N Highway 90 Byp,85635,(520) 459-3562,31.55986473884307,-110.25793857170959
Arizona,Surprise,13869 W Bell Rd,85374,(623) 544-2363,33.63829071307527,-112.3590925355993
Arizona,Surprise,16810 W Waddell Rd,85388,(623) 265-6570,33.61048202336274,-112.42057356588008
Arizona,Tempe,1038 S Mill Ave,85281,(480) 273-8800,33.41798133570578,-111.94040165583704
Arizona,Tempe,1655 W Elliot Rd,85284,(623) 231-3098,33.348634,-111.965379
Arizona,Tempe,2000 E Rio Salado Pkwy,85288,(480) 829-0600,33.43397487875809,-111.90131958046948
Arizona,Tempe,2020 E Elliot Rd,85284,(480) 491-2569,33.3497932916613,-111.9014793061342
Arizona,Tempe,815 E Baseline Rd,85283,(480) 214-2122,33.37791758045822,-111.92908496080338
Arizona,Tucson,1202 W Irvington Rd,85714,(520) 294-0059,32.16395431844095,-110.9896125263815
Arizona,Tucson,1903 E Speedway Blvd,85719,(520) 302-4250,32.236527850280545,-110.94345887360345
Arizona,Tucson,235 W Wetmore Rd,85705,(520) 888-0444,32.286187017960835,-110.97557047489722
Arizona,Tucson,3055 N Campbell Ave,85719,(520) 325-1261,32.262380049822575,-110.94409368921954
Arizona,Tucson,3510 S Kino Pkwy,85713,(520) 999-3100,32.18393151018072,-110.94504076352588
Arizona,Tucson,4857 E Grant Rd,85712,(520) 910-0932,32.25177128286577,-110.89006690858098
Arizona,Tucson,5353 E Broadway Blvd,85711,(520) 675-0484,32.222638975945905,-110.87664834462115
Arizona,Tucson,6501 E Grant Rd,85715,(520) 296-1163,32.25026412653463,-110.85154298893758
Arizona,Tucson,7555 N La Cholla Blvd,85741,(520) 544-3868,32.343577682700435,-111.0133044276954
Arizona,Tucson,905 E University Blvd,85719,(520) 628-7967,32.231921707186025,-110.95746181562401
Arizona,Tucson,9484 E 22nd St,85710,(520) 203-0004,32.20596149006868,-110.79014354983957
Arizona,Yuma,1525 S Yuma Palms Pkwy,85365,(928) 783-3044,32.69978529949036,-114.60102888404407
Arizona,Yuma,3080 S 4th Avenue,85364,(928) 257-1776,32.699878140781735,-114.60100324176364
Arkansas,Bentonville,2400 SE Walton Blvd,72712,(479) 271-2393,36.33465562169019,-94.18511392344067
Arkansas,Conway,915 E Oak St,72032,(501) 504-2416,35.09110110357849,-92.41822973628291
Arkansas,Fayetteville,3379 N College Ave,72703,(479) 251-1175,36.11273654734074,-94.14538540335559
Arkansas,Fayetteville,550 W Dickson St,72701,(479) 444-1466,36.066736703377906,-94.16612579287357
Arkansas,Fort Smith,6205 Rogers Ave,72903,(479) 397-3244,35.36003037317708,-94.36369345648347
Arkansas,Jonesboro,1737 S Caraway Rd,72401,(870) 275-4038,35.82368295731481,-90.67842810504261
Arkansas,Little Rock,100 S University Ave,72205,(501) 404-2557,34.75201036980043,-92.34153181349183
Arkansas,Little Rock,11525 Cantrell Rd,72212,(501) 221-0018,34.793543504482834,-92.40281714293958
Arkansas,Little Rock,12524 Chenal Pkwy,72211,(501) 451-6783,34.75374197773934,-92.41274805453453
Arkansas,North Little Rock,3917 McCain Blvd,72116,(501) 441-3940,34.79124760029005,-92.22818043189754
California,Alameda,2314 S Shore Ctr,94501,(510) 337-1592,37.756040876734254,-122.25041514023036
California,Alameda,2610 5th St,94501,(510) 748-8949,37.78614100776162,-122.28120659723874
California,Alhambra,2121 W Main St,91801,(626) 284-5509,34.09190525021675,-118.14524596502972
California,Aliso Viejo,26661 Aliso Creek Rd,92656,(949) 362-7539,33.57698001431661,-117.72542602602846
California,Anaheim,2002 E Lincoln Ave,92806,(714) 991-1160,33.83957989941753,-117.88867467392521
California,Anaheim,2085 E Katella Ave,92806,(657) 223-8051,33.804139166756975,-117.88643166539222
California,Anaheim,5631 E La Palma Ave,92807,(714) 693-0882,33.860569750992006,-117.79228294204808
California,Anaheim,8182 E Santa Ana Canyon Rd,92808,(714) 283-3092,33.86802786130575,-117.74815098742596
California,Anaheim,927 S Euclid St,92802,(657) 549-6350,33.81873915326949,-117.94176619322118
California,Apple Valley,19179 Bear Valley Rd,92308,(760) 240-5703,34.47069588108122,-117.2457914536875
California,Arcadia,400 S Baldwin Ave,91007,(626) 701-5122,34.13572656223666,-118.04973664929628
California,Arroyo Grande,1229 E Grand Ave,93420,(805) 481-0012,35.12017354508283,-120.60171216458565
California,Atascadero,6435 Morro Rd,93422,(805) 859-0004,35.48399132328144,-120.6651525887499
California,Auburn,2845 Bell Rd,95603,(530) 888-1438,38.94107203078852,-121.0960654484235
California,Azusa,1250 W Foothill Blvd,91702,(626) 513-0000,34.13323576035784,-117.92699809727334
California,Azusa,860 E Alosta Ave,91702,(626) 969-8274,34.12814641664687,-117.89157162822437
California,Bakersfield,10510 Stockdale Hwy,93311,(661) 663-9329,35.35212176910199,-119.11911787270185
California,Bakersfield,2630 Mount Vernon Ave,93306,(661) 872-3577,35.39223261450192,-118.96794031141218
California,Bakersfield,2701 Ming Ave,93304,(661) 398-6274,35.3377069,-119.0351604
California,Bakersfield,3345 Buena Vista Rd,93311,(661) 529-3575,35.3241043,-119.1285617
California,Bakersfield,4580 Coffee Rd,93308,(661) 281-0408,35.40116339582047,-119.091834844792
California,Bakersfield,4950 Stockdale Hwy,93309,(661) 335-0400,35.35453087454825,-119.05705893741703
California,Bakersfield,5321 Gosford Rd,93313,(661) 281-0372,35.30652183893728,-119.09252875520804
California,Bakersfield,9723 Panama Ln,93311,(661) 529-3564,35.2960076,-119.1110519
California,Baldwin Hills,3939 Crenshaw Blvd,90008,(323) 347-2108,34.01332168178815,-118.3366309735149
California,Baldwin Park,13916 Garvey Ave,91706,(626) 337-7362,34.06929200258029,-117.97212920502885
California,Banning,300 S Highland Springs Ave,92220,(951) 769-5450,33.924673248896525,-116.94639329323631
California,Barstow,2590 High Point Pkwy,92311,(760) 253-7480,34.8528123628865,-117.08279671145499
California,Berkeley,1050 Gilman St,94710,(510) 526-6047,37.87939337077996,-122.2963244817883
California,Berkeley,2225 Shattuck Ave,94704,(510) 647-9166,37.8688732912193,-122.26748664723874
California,Berkeley,2311 Telegraph Ave,94704,(510) 548-0340,37.868384336918915,-122.25895608037399
California,Beverly Hills,244 S Beverly Dr,90212,(310) 273-8265,34.063323794483836,-118.39882933026638
California,Brea,1065 Brea Mall,92821,(714) 784-2027,33.91556014878462,-117.88656214737972
California,Brea,477 S Associated Rd,92821,(714) 582-6519,33.91179690220889,-117.88205261146413
California,Brentwood,5401 Lone Tree Way,94513,(925) 516-9012,37.96126017826663,-121.74884971530332
California,Brentwood,7580 Brentwood Blvd,94513,(925) 390-0147,37.9453441,-121.6958194
California,Buena Park,5976 Orangethorpe Ave,90620,(714) 752-5041,33.85831428190834,-118.03057717907734
California,Burbank,135 E Palm Ave,91502,(818) 842-0622,34.18195878665414,-118.31143974113996
California,Burbank,4012 W Riverside Dr,91505,(818) 561-2004,34.151663886857776,-118.34332814293958
California,Cabazon,48557 Morongo Trl,92230,(951) 922-2264,33.923300749294484,-116.80540401356373
California,Camarillo,660 Ventura Blvd,93010,(805) 482-0618,34.21725346260006,-119.06555787396223
California,Campbell,1815 S Bascom Ave,95008,(408) 371-5284,37.29088001186664,-121.93205873037397
California,Canoga Park,6600 Topanga Canyon Blvd,91303,(747) 888-5228,34.19001842367065,-118.60351277654955
California,Capitola,1955 41st Ave,95010,(831) 295-6076,36.97793296544234,-121.96629033430656
California,Carlsbad,2505 Palomar Airport Rd,92011,(760) 607-3220,33.12801536407042,-117.27044465652875
California,Carlsbad,3416 Via Mercato,92009,(760) 400-0056,33.081846051416996,-117.23594035921002
California,Carson,20420 Avalon Blvd,90746,(310) 217-0034,33.846571303188675,-118.26345516132488
California,Castro Valley,3369 Castro Valley Blvd,94546,(510) 582-8643,37.69534808292011,-122.07682173834326
California,Ceres,2870 E Service Rd,95307,(209) 496-9105,37.5799792126156,-120.94179581646843
California,Cerritos,10826 Alondra Blvd,90703,(562) 402-4099,33.88591759076357,-118.10198009524986
California,Cerritos,12560 Artesia Blvd,90703,(562) 653-0701,33.87279148159613,-118.06421767787731
California,Cerritos,459 Los Cerritos Mall,90703,(562) 402-0943,33.8619,-118.092552
California,Chatsworth,9175 De Soto Ave,91311,(818) 671-2902,34.23752415197358,-118.58913502915061
California,Chico,1960 E 20th St,95928,(530) 879-1623,39.72754269084902,-121.80506296936574
California,Chico,620 Mangrove Ave,95926,(530) 343-8707,39.73437615123794,-121.83515019816491
California,Chico,962 East Ave,95926,(530) 924-5953,39.76118,-121.8422
California,Chino,12188 Central Ave,91710,(909) 539-0547,34.03190485597059,-117.69030120491084
California,Chino,8417 Pine Ave.,91708,(840) 218-4795,33.9589151,-117.6200861
California,Chino Hills,13920 City Center Dr,91709,(909) 548-3721,34.00052695549834,-117.73128948798481
California,Chula Vista,2290 Otay Lakes Rd,91915,(619) 421-0078,32.6471146,-116.9656259
California,Chula Vista,569 H St,91910,(619) 761-5847,32.631538330080154,-117.0880960495063
California,Chula Vista,720 Otay Lakes Rd,91910,(619) 761-5452,32.646182,-117.002625
California,Citrus Heights,5851 Sunrise Blvd,95610,(916) 967-7881,38.6720411,-121.2720328
California,City Of Industry,15495 Valley Blvd,91746,(626) 709-3534,34.02196253770011,-117.95960891159734
California,City Of Industry,17501 Colima Rd,91748,(626) 964-9606,33.991108667992535,-117.92463514846213
California,Claremont,885 S Indian Hill Blvd,91711,(909) 398-4497,34.07975728465649,-117.71955228297796
California,Clovis,1210 Shaw Ave,93612,(559) 298-4708,36.80816451357602,-119.69365285818361
California,Clovis,1840 Herndon Ave,93611,(559) 323-4261,36.837102806014755,-119.6829132847252
California,Colma,990 Serramonte Blvd,94014,(415) 840-7007,37.67119213613535,-122.46439892638864
California,Commerce,150 Citadel Dr,90040,(323) 728-2268,34.005528296175974,-118.15293999273166
California,Compton,1759 S Alameda St,90220,(310) 933-0107,33.87653521836164,-118.2178387895666
California,Concord,2002 Salvio St,94520,(925) 969-7751,37.9767127,-122.0354564
California,Concord,5434 Ygnacio Valley Rd,94521,(925) 304-1080,37.94999400485539,-121.95879676113468
California,Concord,785 Oak Grove Rd,94518,(925) 566-5005,37.93720862373058,-122.02542678814535
California,Corona,1160 E Ontario Ave,92881,(951) 444-2000,33.84761569537094,-117.54381688956664
California,Corona,2560 Tuscany St,92881,(951) 340-2489,33.823651,-117.5165168
California,Corona Del Mar,3050 E Coast Hwy,92625,(949) 274-8843,33.598502531784824,-117.87155991534424
California,Coronado,1360 Orange Ave,92118,(619) 365-4287,32.6825342,-117.1786497
California,Costa Mesa,2300 Harbor Blvd,92626,(949) 646-1288,33.658184766787244,-117.91865890867801
California,Costa Mesa,260 Bristol St,92626,(657) 212-3017,33.667879243081295,-117.88292481349183
California,Costa Mesa,468 E 17th St,92627,(949) 688-2868,33.62944251257753,-117.90953340965524
California,Culver City,4114 Sepulveda Blvd,90230,(424) 216-3171,34.007161815291546,-118.41262312546246
California,Culver City,6000 Sepulveda Blvd,90230,(310) 773-9047,33.98562677521357,-118.39336051175782
California,Culver City,6150 W Slauson Ave,90230,(310) 313-1051,33.98811135886199,-118.39300704814138
California,Culver City,9512 Culver Blvd,90232,(310) 841-0561,34.0233754,-118.3943383
California,Cupertino,10385 S De Anza Blvd,95014,(408) 252-5421,37.31726503354268,-122.03278998505789
California,Cupertino,20688 Homestead Rd,95014,(408) 257-7682,37.337315054598356,-122.03648371994058
California,Cypress,6859 Katella Ave,90630,(714) 947-7028,33.80372614549295,-118.01252306588651
California,Daly City,213 Westlake Ctr,94015,(650) 757-4587,37.70148181035406,-122.4824343131621
California,Danville,33 Railroad Ave,94526,(925) 553-3920,37.82315928914039,-122.00409490062907
California,Davis,227 E St,95616,(530) 758-3599,38.5440526,-121.7415034
California,Del Mar,2710 Via De La Valle,92014,(858) 724-1181,32.9812865943242,-117.24979818185977
California,Delano,503 Woollomes Avenue,93215,(661) 561-5393,35.74749449999999,-119.2479208
California,Diamond Bar,235 S Diamond Bar Blvd,91765,(909) 396-0666,34.02087757522673,-117.81055878105349
California,Downey,8500 Firestone Blvd,90241,(562) 622-1987,33.9378076569092,-118.12955238646725
California,Downey,8890 Apollo Way,90242,(562) 803-4354,33.92222904425112,-118.13154774014572
California,Dublin,5240 Dublin Blvd,94568,(925) 479-0862,37.70561684178781,-121.89083598834327
California,Dublin,7020 Amador Plaza Rd,94568,(925) 828-4361,37.706373161666555,-121.92911820179427
California,Eastvale,12411 Limonite Ave,91752,(951) 254-9799,33.97667219672287,-117.55285768220904
California,El Cajon,225 Jamacha Rd,92019,(619) 938-2391,32.79401250323742,-116.93476260142046
California,El Centro,1953 N Imperial Ave,92243,(442) 283-2055,32.8107101,-115.5694551
California,El Cerrito,9901 San Pablo Ave,94530,(510) 900-2658,37.89920809436757,-122.30230887177561
California,El Dorado Hills,4520 Post St,95762,(916) 235-8549,38.65222395461087,-121.0679584911872
California,El Segundo,307 N Pacific Coast Hwy,90245,(310) 426-1437,33.9196429750764,-118.39646644508912
California,Elk Grove,4730 Elk Grove Blvd,95758,(916) 478-0054,38.408341870819115,-121.44929689394961
California,Elk Grove,7440 Laguna Blvd,95758,(916) 478-2360,38.4231808,-121.4155253
California,Elk Grove,7450 Elk Grove Blvd,95757,(279) 800-8758,38.40700456381073,-121.4170904681055
California,Encinitas,242 N El Camino Real,92024,(442) 357-1366,33.049444126487906,-117.26059824586603
California,Escondido,1201 E Valley Pkwy,92027,(760) 884-3002,33.130322653305605,-117.06659018800502
California,Escondido,1282 Auto Park Way,92029,(442) 999-6352,33.113014851997406,-117.10103903834323
California,Escondido,200 E Via Rancho Pkwy,92025,(760) 743-3250,33.071379410599924,-117.06621495515303
California,Eureka,2626 Broadway,95501,(707) 502-3294,40.78425839100063,-124.18422516147618
California,Fair Oaks,5223 Hazel Ave,95628,(916) 536-9205,38.66156637178626,-121.22602352734116
California,Fairfield,1586 Gateway Blvd,94533,(707) 432-0330,38.261633262094044,-122.05847163374688
California,Folsom,1001 E Bidwell St,95630,(916) 983-9374,38.66945594182111,-121.15562516034875
California,Folsom,2379 Iron Point Rd,95630,(916) 605-4040,38.64500627533872,-121.12336725425826
California,Fontana,10515 Sierra Ave,92337,(909) 349-0242,34.0627057,-117.4350364
California,Fontana,16595 Sierra Lakes Pkwy,92336,(909) 350-0054,34.138460305686856,-117.44145879080668
California,Foster City,2019 Chess Dr,94404,(650) 539-3638,37.562540203832256,-122.28064386932886
California,Fountain Valley,17150 Brookhurst St,92708,(714) 377-2698,33.714134,-117.954105
California,Fountain Valley,18951 Brookhurst St,92708,(714) 968-4003,33.68759248664302,-117.95451643741706
California,Fremont,2760 Mowry Ave,94538,(510) 791-8411,37.554397790514614,-121.98171172607476
California,Fremont,44029 Osgood Rd,94539,(510) 657-8802,37.51111452118028,-121.94075768554939
California,Fremont,5565 Auto Mall Pkwy,94538,(510) 979-9397,37.50434624597707,-121.97563680350913
California,Fresno,3520 N Blackstone Ave,93726,(559) 243-7418,36.78161964568193,-119.79007662149581
California,Fresno,4424 W Shaw Ave,93722,(559) 274-9973,36.80942382028508,-119.87181903191185
California,Fresno,4978 N Cedar Ave,93726,(559) 490-0136,36.8081309228704,-119.75344405147962
California,Fresno,5128 N Palm Ave,93704,(559) 225-1166,36.81108327268125,-119.8080885580822
California,Fresno,6702 N Brawley Ave,93711,(559) 550-1809,36.83564343834002,-119.86199011716194
California,Fresno,80 E Nees Ave,93720,(559) 490-0605,36.852130620865516,-119.78899949694159
California,Fullerton,101 E Orangethorpe Ave,92832,(714) 578-6764,33.859725096408425,-117.92382825257039
California,Fullerton,501 N State College Blvd,92831,(714) 525-2121,33.87455997679416,-117.8901444286216
California,Garden Grove,9737 Chapman Ave,92841,(714) 590-1258,33.78884075207645,-117.96322514508915
California,Gardena,1755 W Artesia Blvd,90248,(310) 436-4293,33.87347234415794,-118.30884125214959
California,Gilroy,6955 Camino Arroyo,95020,(408) 848-4079,37.00297748618977,-121.55199715368747
California,Glendale,1135 Glendale Galleria,91210,(818) 507-8455,34.145124,-118.259326
California,Glendale,132 N Glendale Ave,91206,(818) 244-5091,34.14745710452632,-118.24634196073055
California,Glendale,155 N. Brand Blvd.,91203,(818) 543-7652,34.14795064352478,-118.25529353628349
California,Glendora,1365 E Gladstone St,91740,(909) 592-7063,34.11636408347833,-117.83563471440067
California,Gold River,2350 Sunrise Blvd,95670,(916) 852-8724,38.61703934520703,-121.26894929933837
California,Goleta,270 Storke Rd,93117,(805) 685-1265,34.42917694680606,-119.86940571226859
California,Granada Hills,16959 Devonshire St,91344,(747) 300-4570,34.25774798768706,-118.5020815711813
California,Granite Bay,6981 Douglas Blvd,95746,(279) 217-3175,38.743817567922605,-121.17184137749528
California,Hanford,366 N 12th Ave,93230,(559) 582-2021,36.327476827217744,-119.67329958895493
California,Hawthorne,5330 W Rosecrans Ave,90250,(310) 297-0850,33.90123578697386,-118.37322521000647
California,Hayward,22263 Foothill Boulevard,94541,(341) 232-1318,37.679338704597875,-122.08498616803314
California,Hemet,2465 W Florida Ave,92545,(951) 658-0139,33.74715564751028,-116.99751010828379
California,Hermosa Beach,1439 Pacific Coast Hwy,90254,(310) 374-1612,33.86533148472044,-118.39348661381166
California,Hesperia,9770 Mariposa Rd,92345,(760) 948-8027,34.42800850102093,-117.37842113261279
California,Hollister,1250 E Park St,95023,(831) 665-6014,36.841920391175975,-121.39120713837202
California,Huntington Beach,16241 Beach Blvd,92647,(714) 841-8701,33.726848923164056,-117.98969228282067
California,Huntington Beach,20962 Magnolia St,92646,(657) 502-0007,33.8037935,-117.975649
California,Huntington Beach,7101 Yorktown Ave,92648,(657) 204-7171,33.68070597247496,-118.0043468788187
California,Imperial Beach,801 Palm Ave,91932,(619) 423-3991,32.583602564037996,-117.1154485898486
California,Indio,42213 Jackson St,92203,(760) 989-4616,33.7426696,-116.2167608
California,Indio,49810 Jefferson St,92201,(442) 307-5866,33.68870065427701,-116.26826015331797
California,Inglewood,2944 W Imperial Hwy,90303,(323) 779-2619,33.93072,-118.32543
California,Inglewood,3421 W Century Blvd,90303,(424) 732-7533,33.9464402,-118.332277
California,Irvine,3911 Irvine Blvd,92602,(657) 467-6310,33.722913861828914,-117.77250782885207
California,Irvine,3966 Barranca Pkwy,92606,(949) 390-8276,33.68552416345209,-117.81125817954432
California,Irvine,4255 Campus Dr,92612,(949) 242-3737,33.64951310587863,-117.8390773262272
California,Irvine,6424 Irvine Blvd,92620,(949) 242-3284,33.69833291147472,-117.74095873973448
California,Irvine,6500 Irvine Center Dr,92618,(949) 202-5040,33.669544,-117.765364
California,Irvine,731 Spectrum Center Dr,92618,(949) 753-0554,33.65076778673915,-117.74288414416293
California,La Canada Flintridge,895 Foothill Blvd,91011,(818) 790-8127,34.2035553021316,-118.19775441532687
California,La Habra,1202 S Idaho St,90631,(714) 526-0800,33.916496604979194,-117.95884084885152
California,La Jolla,8657 Villa La Jolla Dr,92037,(858) 554-1866,32.86491213418086,-117.23194471635314
California,La Mesa,8005 Fletcher Pkwy,91942,(619) 589-2258,32.77361313869,-117.02695971336595
California,La Quinta,79174 Highway 111,92253,(760) 564-3079,33.70826301959636,-116.28339158094471
California,La Verne,2298 Foothill Blvd,91750,(909) 575-6878,34.11205096859536,-117.76224672293085
California,Lafayette,3518 Mt Diablo Blvd,94549,(925) 282-3977,37.89320838385394,-122.1181198687172
California,Laguna Niguel,27221 La Paz Rd,92677,(949) 448-8328,33.568050895227415,-117.70855873098566
California,Laguna Niguel,32391 Golden Lantern,92677,(949) 272-5605,33.49306587332824,-117.69843000859211
California,Lake Elsinore,18492 Dexter Ave,92532,(951) 226-3534,33.6920645,-117.3355488
California,Lake Forest,22379 El Toro Rd,92630,(949) 830-9091,33.637965309430356,-117.6806010030881
California,Lake Forest,23645 El Toro Road,92630,(949) 587-1550,33.61882578365792,-117.70345915116064
California,Lake Forest,26592 Towne Centre Dr,92610,(949) 273-0877,33.677262,-117.666662
California,Lakewood,5310 Lakewood Blvd,90712,(562) 790-8786,33.854145981105354,-118.1419423762926
California,Lancaster,855 W. Avenue K.,93534,(661) 206-3535,34.675182,-118.1473502
California,Lathrop,16542 Golden Valley Parkway,95330,(209) 390-9153,37.811438,-121.2992387
California,Lebec,5602 Dennis McCarthy Dr,93243,(661) 858-2335,34.98650931128791,-118.94631826994055
California,Livermore,3238 Livermore Outlets Dr,94551,(925) 373-0453,37.698531464662665,-121.84489624614488
California,Livermore,4691 1st St,94551,(925) 243-9914,37.69911086622164,-121.74162527883607
California,Lodi,2310 Tienda Dr,95242,(209) 371-0881,38.116714,-121.302485
California,Lodi,2601 Reynolds Ranch Pkwy,95240,(209) 642-4273,38.100800650401936,-121.266857327001
California,Long Beach,1800 Ximeno Ave,90815,(562) 597-0469,33.79012665654251,-118.1386805582838
California,Long Beach,245 Pine Ave,90802,(562) 432-9472,33.770147975849525,-118.19266047015526
California,Long Beach,6324 E Pacific Coast Hwy,90803,(562) 430-2079,33.75992213118886,-118.11493196553525
California,Los Angeles,10250 Santa Monica Blvd,90067,(424) 204-0026,34.05797479768634,-118.41965665947433
California,Los Angeles,1077 Broxton Ave,90024,(310) 824-4180,34.061058613094744,-118.44631431715572
California,Los Angeles,110 S Fairfax Ave,90036,(323) 857-0608,34.07371368469808,-118.36095654892976
California,Los Angeles,1122 W 6th St,90017,(213) 250-9277,34.054200666523464,-118.26337541964341
California,Los Angeles,11690 San Vicente Blvd,90049,(424) 652-4336,34.05350633181874,-118.46487593252175
California,Los Angeles,11711 National Blvd,90064,(310) 231-1135,34.022681490352895,-118.43917967651839
California,Los Angeles,1550 S La Cienega Blvd,90035,(424) 421-1240,34.049130007714794,-118.37585584048001
California,Los Angeles,2134 W Sunset Blvd,90026,(213) 989-6914,34.07714537434653,-118.26476045157142
California,Los Angeles,2200 Trojan Way,90033,(909) 480-3436,34.06414329182321,-118.20230903510205
California,Los Angeles,255 S Grand Ave,90012,(213) 335-5025,34.053450363282316,-118.25139227852469
California,Los Angeles,2595 S Hoover St,90007,(213) 863-4566,34.03208483607215,-118.28431885583643
California,Los Angeles,301 N Larchmont Blvd,90004,(323) 978-2047,34.07643494986921,-118.32395840740463
California,Los Angeles,301 W Olympic Blvd,90015,(213) 623-3306,34.042015,-118.25841
California,Los Angeles,3183 Wilshire Blvd,90010,(213) 884-4094,34.0621866752937,-118.29138750532945
California,Los Angeles,3748 S Figueroa St,90007,(213) 765-9068,34.01695555547079,-118.28258402025506
California,Los Angeles,4550 W Pico Blvd,90019,(323) 297-0628,34.0481825,-118.33601217
California,Los Angeles,5047 Eagle Rock Blvd,90041,(323) 206-5414,34.138332433303944,-118.2147237946707
California,Los Angeles,5550 Wilshire Blvd,90036,(323) 272-6661,34.06212336959151,-118.35021525720066
California,Los Angeles,601 W 7th St,90017,(213) 283-2058,34.04759612692327,-118.25664718579833
California,Los Angeles,6290 W Sunset Blvd,90028,(213) 521-2441,34.09784069977157,-118.3263496790029
California,Los Angeles,6719 La Tijera Blvd,90045,(310) 665-9478,33.978884768617974,-118.37066314049281
California,Los Angeles,7101 Melrose Ave,90046,(323) 297-0334,34.08362649308188,-118.3443386895666
California,Los Angeles,7660 W Sunset Blvd,90046,(323) 952-5160,34.0978471129027,-118.35690521268083
California,Los Angeles,8420 Beverly Blvd,90048,(323) 782-1281,34.07313567,-118.37276533
California,Los Banos,1420 E Pacheco Blvd,93635,(209) 710-5049,37.0573202,-120.8333382
California,Los Gatos,640 Blossom Hill Rd,95032,(408) 353-7133,37.23535350416661,-121.96365672110028
California,Madera,2180 W Cleveland Ave,93637,(559) 661-2048,36.97402194121919,-120.08301113121536
California,Malibu,3822 Cross Creek Rd,90265,(424) 644-2184,34.036158,-118.684829
California,Manteca,1442 Hulsey Way,95336,(209) 823-1017,37.79631039976567,-121.19301733313455
California,Marina,140 General Stillwell Dr,93933,(831) 582-9812,36.66588128255013,-121.80972461674025
California,Marina Del Rey,4718 Admiralty Way,90292,(310) 821-0059,33.979174,-118.4383297
California,Martinez,1061 Arnold Dr,94553,(925) 957-6059,37.99476243515115,-122.10585776070695
California,Menifee,30024 Haun Rd,92584,(951) 301-9249,33.68456530437326,-117.17496204295696
California,Merced,3110 R St,95348,(209) 722-7488,37.31977990890728,-120.48614440335558
California,Merced,3120 Campus Parkway,95341,(209) 285-0294,37.275227254251334,-120.43276678426133
California,Millbrae,135 S El Camino Real,94030,(650) 259-9301,37.59664287481773,-122.38616887789249
California,Milpitas,246 Great Mall Dr,95035,(408) 935-9254,37.413630562725025,-121.89682308921952
California,Mission Hills,10384 Sepulveda Blvd,91345,(818) 361-1778,34.25943147644151,-118.46645207188168
California,Mission Viejo,25523 Marguerite Pkwy,92692,(949) 420-2316,33.59225511328315,-117.66029921708538
California,Mission Viejo,27750 Crown Valley Pkwy,92691,(949) 347-1663,33.559430658968246,-117.67142648344975
California,Mission Viejo,Vc10 Shops At Mission Viejo,92691,(949) 347-1530,33.5577252,-117.6684666
California,Modesto,1801 McHenry Ave,95350,(209) 522-0013,37.670898363220275,-120.9946327764062
California,Modesto,3401 Dale Rd,95356,(209) 550-0540,37.6876585442444,-121.05255809897119
California,Monrovia,608 W Huntington Dr,91016,(626) 239-3033,34.13980863005088,-118.01247076711644
California,Montclair,9177 Central Ave,91763,(909) 575-6434,34.08735747390883,-117.68910175613422
California,Montebello,545 N Montebello Blvd,90640,(323) 721-1078,34.01898412881839,-118.10597044601536
California,Monterey,500 Del Monte Ctr,93940,(831) 641-9353,36.58351079602785,-121.89678568496998
California,Monterey,560 Munras Ave,93940,(831) 718-9369,36.596602,-121.894703
California,Monterey Park,2180 S Atlantic Blvd,91754,(323) 488-6944,34.03839617176134,-118.14455450980438
California,Moorpark,806 E Los Angeles Ave.,93021,(805) 222-4284,34.27876598701785,-118.86675525345139
California,Moreno Valley,12625 Frederick St,92553,(951) 269-2429,33.93697901084461,-117.2618174240078
California,Morgan Hill,775 Cochrane Rd,95037,(408) 776-8505,37.15120417259024,-121.65604422441993
California,Mountain View,1039 El Monte Ave,94040,(650) 919-8448,37.39063600714947,-122.09439689265196
California,Mountain View,2400 Charleston Rd,94043,(650) 969-6528,37.4218453291052,-122.09651837949752
California,Murrieta,27970 Clinton Keith Rd,92563,(951) 574-1338,33.59863431844814,-117.17256879255562
California,Murrieta,40940 California Oaks Rd,92562,(951) 894-1112,33.5683063848896,-117.20468239847946
California,Napa,1715 Trancas St,94558,(707) 226-1769,38.3212999,-122.3059614
California,Napa,304 Soscol Ave,94559,(707) 227-1200,38.28588119085403,-122.27434205735756
California,National City,404 Mile Of Cars Way,91950,(619) 336-0030,32.6605279,-117.1055342
California,Newark,34883 Newark Blvd,94560,(510) 742-8010,37.55115907630892,-122.05144880393186
California,Newport Beach,1322 Bison Ave,92660,(949) 219-0717,33.63897764137414,-117.8600891346731
California,Newport Beach,3101 Newport Blvd,92663,(949) 200-4354,33.6152648852506,-117.93063838245149
California,Norco,1409 Hamner Ave,92860,(951) 817-0447,33.90263415128826,-117.56187604518708
California,North Hollywood,13075 Victory Blvd,91606,(818) 763-2975,34.18708117562117,-118.41715728339146
California,North Hollywood,5240 Lankershim Blvd,91601,(818) 643-2196,34.1661600822382,-118.37501567104817
California,Northridge,19332 Nordhoff St,91324,(818) 671-2232,34.23468376233135,-118.55489721694748
California,Northridge,8420 Balboa Blvd,91325,(818) 891-1034,34.2236510643574,-118.5018123438137
California,Northridge,9160 Reseda Blvd,91324,(818) 435-6290,34.23697270172239,-118.53570619413169
California,Norwalk,12539 Imperial Hwy,90650,(562) 210-4915,33.9178147676955,-118.0658323513213
California,Novato,128 Vintage Way,94945,(628) 236-8393,38.09151764901642,-122.5561181125808
California,Oakland,1302 Broadway,94612,(341) 699-7499,37.80371968186794,-122.27124746195393
California,Oakland,3017 Broadway,94611,(510) 763-1432,37.81919,-122.262585
California,Oakland,3271 Lakeshore Ave,94610,(510) 788-6900,37.810767415996374,-122.24476638808744
California,Oakland,8460 Edgewater Dr,94621,(510) 686-8000,37.73794078618209,-122.19746573745556
California,Oceanside,2611 Vista Way,92054,(760) 721-6904,33.181845768432154,-117.33164935031454
California,Oceanside,4111 Oceanside Blvd,92056,(760) 659-4147,33.205653064520334,-117.28861079569788
California,Oceanside,495 College Blvd,92057,(760) 758-1493,33.245213451838396,-117.29050765091336
California,Ontario,1 Mills Cir,91764,(909) 694-2357,34.073101,-117.552031
California,Ontario,2200 S Grove Ave,91761,(909) 930-6149,34.03347387024438,-117.62885404299324
California,Orange,112 E Maple Ave,92866,(714) 912-8544,33.78954252965513,-117.85282797648462
California,Orange,2202 N Tustin St,92865,(714) 283-5010,33.82580291158203,-117.83640855889553
California,Orange,3440 E Chapman Ave,92869,(657) 888-6149,33.787170245544765,-117.8165608815973
California,Oroville,325 Oroville Dam Blvd,95965,(530) 403-5210,39.49757019320775,-121.57234387204487
California,Oxnard,1291 S Victoria Ave,93035,(805) 228-5324,34.18947175841615,-119.22165433571324
California,Oxnard,369 W Esplanade Dr,93036,(805) 200-2052,34.23402920478308,-119.17877830129345
California,Pacific Palisades,15207 W Sunset Blvd,90272,(310) 230-0153,34.04642032110833,-118.52430300135804
California,Palm Desert,34100 Monterey Ave,92211,(760) 202-1126,33.801446689642624,-116.38747067484036
California,Palm Desert,39575 Washington St,92211,(442) 305-4562,33.76305897480835,-116.30105329921986
California,Palm Desert,72333 Highway 111,92260,(760) 346-1838,33.72810403189702,-116.40305055475794
California,Palm Springs,2465 E Palm Canyon Dr,92264,(760) 325-0346,33.80077209644914,-116.52167565167815
California,Palmdale,1125 W Rancho Vista Blvd,93551,(661) 266-0944,34.60234325273732,-118.15016453697854
California,Palmdale,38207 47th Street East,93552,(661) 349-4468,34.5792556,-118.0451917
California,Palo Alto,180 El Camino Real,94304,(650) 618-6994,37.44481458900919,-122.16927148831822
California,Palo Alto,2675 El Camino Real,94306,(650) 462-9154,37.42387416998631,-122.14306001409534
California,Panorama City,7940 Van Nuys Blvd,91402,(818) 787-1213,34.21561863591302,-118.44839308630355
California,Paramount,15754 Paramount Blvd,90723,(562) 220-2606,33.889671705188285,-118.15984994835645
California,Pasadena,1687 E Colorado Blvd,91106,(626) 765-3314,34.1462581,-118.1155796
California,Pasadena,246 S Lake Ave,91101,(626) 229-9173,34.14161284582905,-118.13193169412368
California,Pasadena,3409 E Foothill Blvd,91107,(626) 351-6017,34.151687162182554,-118.08020075602525
California,Paso Robles,98 Niblick Rd,93446,(805) 769-9221,35.614783491487046,-120.6833899971
California,Patterson,975 Sperry Ave,95363,(209) 758-5468,37.464867819560695,-121.14030020168643
California,Perris,1870 N Perris Blvd,92571,(951) 443-2821,33.80745746473947,-117.2265905485969
California,Petaluma,401 Kenilworth Dr,94952,(707) 772-5225,38.24360779834869,-122.62637620493484
California,Pico Rivera,8888 Whittier Blvd,90660,(562) 478-4607,34.001212777535095,-118.08429593984698
California,Pinole,2696 Pinole Valley Rd,94564,(510) 283-0070,37.99584488069377,-122.28616963049592
California,Pittsburg,4418 Century Blvd,94565,(925) 754-3270,38.005543685158585,-121.83947117605857
California,Placentia,1474 N Kraemer Blvd,92870,(714) 646-4565,33.88747989525577,-117.8628750410636
California,Placerville,3987 Missouri Flat Rd,95667,(530) 748-0094,38.71319049321305,-120.84009296658496
California,Pleasant Hill,552 Contra Costa Blvd,94523,(925) 671-0108,37.97809400000003,-122.06741798834324
California,Pleasant Hill,60 Crescent Dr,94523,(925) 674-0615,37.94573569798795,-122.06170254193489
California,Pleasanton,6654 Koll Center Pkwy,94566,(925) 426-0052,37.658930237997666,-121.89800909229531
California,Pomona,785 Rio Rancho Rd,91766,(909) 236-5136,34.03369167184923,-117.75679611288012
California,Porter Ranch,20111 Rinaldi St,91326,(818) 721-9796,34.27553505465713,-118.57239324321648
California,Porterville,1174 W Henderson Ave,93257,(559) 339-0236,36.0808,-119.04342
California,Poway,13495 Poway Rd,92064,(858) 748-9200,32.95490609620121,-117.0389035024939
California,Rancho Cordova,2878 Zinfandel Dr,95670,(916) 861-0620,38.59431543959226,-121.28856367792719
California,Rancho Cucamonga,10811 Foothill Blvd,91730,(909) 476-8424,34.10618371186749,-117.56885251629608
California,Rancho Cucamonga,11334 4th St,91730,(909) 476-7863,34.07764976353122,-117.55757129295694
California,Rancho Cucamonga,7879 Monticello Ave,91739,(909) 899-0701,34.11030699439223,-117.53548142270182
California,Rancho Santa Margarita,22245 El Paseo,92688,(949) 459-1035,33.63911453993435,-117.59409620985576
California,Redding,961 Dana Dr,96003,(530) 223-9292,40.585336942860884,-122.3540046133121
California,Redlands,27511 San Bernardino Ave,92374,(909) 335-7045,34.07402297315253,-117.20509066417401
California,Redlands,635 Orange St,92374,(909) 307-8424,34.06115084976654,-117.18292099477748
California,Redwood City,224 Redwood Shores Pkwy,94065,(650) 674-4006,37.52172124999472,-122.25185753841744
California,Redwood City,861 Middlefield Rd,94063,(650) 216-9325,37.48582585979885,-122.22887095577227
California,Rialto,1314 S Riverside Ave,92376,(909) 879-7332,34.07724446256744,-117.3707390808774
California,Rialto,186 E Easton St,92376,(909) 879-7807,34.13477400873257,-117.36932463011198
California,Ridgecrest,820 S China Lake Blvd,93555,(760) 301-5136,35.61019066546266,-117.66986528847502
California,Riverbank,2207 Claribel Rd,95367,(209) 869-1217,37.71164400561816,-120.9579370569407
California,Riverside,22430 Van Buren Blvd,92518,(951) 867-4536,33.8884688319714,-117.27336015166965
California,Riverside,3510 Tyler St,92503,(951) 351-2604,33.90711401311614,-117.4582640656414
California,Riverside,3525 Riverside Plaza Dr,92506,(951) 779-1962,33.955641,-117.389392
California,Riverside,8956 Trautwein Rd,92508,(951) 697-6910,33.89025918631179,-117.32418543219165
California,Rocklin,5194 Commons Dr,95677,(916) 303-7002,38.80463574925882,-121.20656128662051
California,Rohnert Park,6325 Commerce Blvd,94928,(707) 536-0348,38.34732644821981,-122.71012806688213
California,Rolling Hills Estates,4C Peninsula Ctr,90274,(310) 265-0031,33.77614299816564,-118.37576685077535
California,Rosemead,3616 Rosemead Blvd,91770,(626) 782-6431,34.07458922642114,-118.07220788252357
California,Roseville,1136 Galleria Blvd,95678,(916) 783-8841,38.770105437763675,-121.26476193559932
California,Roseville,1980 Blue Oaks Blvd,95747,(279) 336-5288,38.79211759276148,-121.35690508295247
California,Roseville,3988 Douglas Blvd,95661,(916) 786-9218,38.74303637962803,-121.227539677001
California,Roseville,4200 Thrive Dr,95678,(916) 742-7121,38.793988,-121.299896
California,Roseville,781 Pleasant Grove Blvd,95678,(916) 788-8282,38.7895085668169,-121.28090681840268
California,Sacramento,1601 Broadway,95818,(916) 442-2169,38.561828,-121.491902
California,Sacramento,1729 Howe Ave,95825,(916) 646-4571,38.59735987605298,-121.41587020828382
California,Sacramento,1831 Capitol Ave,95811,(916) 444-8940,38.57402706388792,-121.48275713189452
California,Sacramento,2517 Fair Oaks Blvd,95825,(916) 487-1125,38.5756492793364,-121.4033964150297
California,Sacramento,2650 Arena Blvd,95834,(279) 247-9068,38.6426399,-121.5210512
California,Sacramento,2800 Del Paso Rd,95834,(916) 575-8816,38.65552956908005,-121.52395433636383
California,Sacramento,3302 Arden Way,95825,(279) 499-0080,38.595836,-121.386417
California,Sacramento,3328 El Camino Ave,95821,(916) 485-6305,38.61001551696079,-121.3857316063258
California,Sacramento,3830 Truxel Rd,95834,(916) 574-9671,38.63867609436161,-121.50498536258294
California,Sacramento,4001 Freeport Blvd,95822,(916) 596-4005,38.53778240419858,-121.49241688337742
California,Sacramento,5040 Auburn Blvd,95841,(916) 334-5200,38.66020923057192,-121.34704147761272
California,Sacramento,5738 Folsom Blvd,95819,(916) 245-5062,38.557712,-121.4366786
California,Sacramento,615 David J Stern Walk,95814,(916) 596-3882,38.5808194,-121.4987154
California,Sacramento,8124 Delta Shores Cir S,95832,(916) 665-1642,38.46512508228903,-121.49228194156194
California,Salinas,1748 N Main St,93906,(831) 444-0943,36.71701510032351,-121.65393674938832
California,San Bernardino,1092 E Hospitality Ln,92408,(909) 799-9420,34.069252980682066,-117.26190170053064
California,San Bruno,1150 El Camino Real,94066,(650) 829-2469,37.6372041,-122.4172493
California,San Carlos,1135 Industrial Rd,94070,(650) 598-0847,37.50220845635966,-122.24637262417463
California,San Clemente,806 Avenida Pico,92673,(949) 272-5955,33.442553042795176,-117.61399021458466
California,San Diego,101 W Broadway,92101,(619) 810-2383,32.71513987778212,-117.16430473950062
California,San Diego,1025 Camino De La Reina,92108,(619) 491-0481,32.76798397845298,-117.15325137913322
California,San Diego,10550 Craftsman Way,92127,(858) 304-3024,33.02013968053748,-117.11107023715459
California,San Diego,11134 Rancho Carmel Dr,92128,(858) 524-5614,32.97977174791824,-117.08269000307575
California,San Diego,1504 Garnet Ave,92109,(858) 274-3093,32.79971538531029,-117.24262253617752
California,San Diego,2750 Bauer Road,92145,(858) 689-0001,32.88780078187407,-117.13142984785372
California,San Diego,3680 Rosecrans St,92110,(619) 222-0508,32.75119540858461,-117.20560606468263
California,San Diego,3881 Valley Centre Dr,92130,(858) 724-0994,32.93772358950651,-117.23012450267805
California,San Diego,5650 Balboa Ave,92111,(858) 380-2316,32.820499457084594,-117.17898082729818
California,San Diego,6083 El Cajon Blvd,92115,(619) 265-2417,32.76128861846487,-117.0666150433999
California,San Diego,7081 Clairemont Mesa Blvd,92111,(858) 380-2301,32.831583765641234,-117.16460263069126
California,San Diego,734 University Ave,92103,(619) 209-3688,32.74861224137139,-117.1576661688702
California,San Diego,8250 Mira Mesa Blvd,92126,(858) 586-2147,32.914052002712026,-117.14592763616781
California,San Fernando,1100 Truman St,91340,(818) 898-2351,34.28358071628897,-118.44139870118244
California,San Francisco,121 4th St,94103,(415) 500-9635,37.78430291464379,-122.40361731532687
California,San Francisco,1523 Sloat Blvd,94132,(415) 592-2187,37.73245288257204,-122.48998301707604
California,San Francisco,211 Sutter St,94104,(415) 590-4199,37.7896709,-122.4039997
California,San Francisco,2675 Geary Boulevard,94118,(415) 202-0781,37.78205287353228,-122.44653641055487
California,San Francisco,3251 20th Ave,94132,(415) 418-3048,37.7276457,-122.4765986
California,San Francisco,400 Howard St,94105,(415) 442-0211,37.78937085749672,-122.39583639938832
California,San Francisco,50 California St,94111,(415) 500-9511,37.7942596,-122.3974244
California,San Francisco,525 Market Street,94105,(415) 278-0461,37.79046409288761,-122.39929950399244
California,San Jose,1 S Market St,95113,(408) 938-0919,37.335014405104545,-121.89258033644445
California,San Jose,1095 E Brokaw Rd,95131,(408) 703-2871,37.38309436617842,-121.89687953849251
California,San Jose,1110 Blossom Hill Rd,95118,(408) 724-5272,37.24964078046565,-121.87626490388577
California,San Jose,1566 Monterey Hwy,95110,(408) 286-3371,37.31446351173001,-121.87146726951444
California,San Jose,1645 Saratoga Ave,95129,(408) 777-8902,37.29292404334293,-121.99117377852156
California,San Jose,2007 Camden Ave,95124,(408) 369-8163,37.262196276218305,-121.93178962662427
California,San Jose,2855 Stevens Creek Blvd,95050,(408) 418-4086,37.32615899084708,-121.94394082015276
California,San Jose,2990 E Capitol Expy,95148,(408) 300-5114,37.331138775240554,-121.81211644155081
California,San Jose,361 N Capitol Ave,95133,(408) 457-6347,37.3711472221808,-121.84490282047204
California,San Jose,369 S Winchester Blvd,95128,(408) 213-2935,37.321716266020005,-121.95055006271474
California,San Jose,4180 N 1st St,95134,(408) 520-4827,37.41624775063058,-121.95495192858843
California,San Jose,540 Newhall Dr,95110,(408) 418-4500,37.35053145005193,-121.92219511558075
California,San Jose,5670 Cottle Rd,95123,(408) 300-5186,37.24865130878421,-121.80287968553824
California,San Jose,975 The Alameda,95126,(408) 288-9172,37.331906817882945,-121.90865991226781
California,San Leandro,1505 E 14th St,94577,(510) 667-1003,37.72336091000679,-122.15393846504054
California,San Luis Obispo,297 Madonna Rd,93405,(805) 541-6975,35.26261463509377,-120.6776980849703
California,San Marcos,575 Grand Ave,92078,(760) 304-8720,33.137033,-117.17627
California,San Mateo,1050 Park Pl,94403,(650) 242-7265,37.54469055552596,-122.29148268458405
California,San Pedro,940 N Western Ave,90732,(424) 703-6498,33.75100294454226,-118.30714735279089
California,San Rafael,345 3rd St,94901,(415) 300-3028,37.96956572128692,-122.5167520404928
California,San Rafael,5800 Northgate Dr,94903,(415) 507-0493,38.003597227394856,-122.54408339512385
California,San Ramon,132 Sunset Dr,94583,(925) 380-1426,37.76160124128773,-121.96254508963604
California,San Ramon,2421 San Ramon Valley Blvd,94583,(925) 820-4110,37.775151705046845,-121.97801796374807
California,Sand City,2140 California Ave,93955,(831) 899-1096,36.62262582038521,-121.84366126380633
California,Sanger,2880 Jensen Ave,93657,(816) 763-1350,36.7068473,-119.5774234
California,Santa Ana,1313 W 17th St,92706,(714) 380-3974,33.76036780466999,-117.88610817392521
California,Santa Ana,2773 N Main St,92705,(714) 656-0005,33.77336674902728,-117.86701247985775
California,Santa Ana,3705 S Bristol St,92704,(714) 754-7380,33.69835440817147,-117.88499861869985
California,Santa Ana,629 S Harbor Blvd,92704,(714) 775-8531,33.73867472818457,-117.91965691960246
California,Santa Barbara,3851 State St,93105,(805) 979-3808,34.439503969029175,-119.749159864462
California,Santa Clara,2002 El Camino Real,95050,(408) 418-4508,37.35207161322408,-121.96027531067614
California,Santa Clara,3249 Coronado Pl,95054,(408) 562-0083,37.380903202257706,-121.97438984225003
California,Santa Clara,3952 Rivermark Plz,95054,(408) 418-4103,37.39480489533197,-121.946407394792
California,Santa Clarita,19085 Golden Valley Rd,91387,(661) 298-0899,34.394496758831735,-118.46282056470119
California,Santa Clarita,26543 Bouquet Canyon Rd,91350,(661) 347-0566,34.427744923930995,-118.53743189386577
California,Santa Cruz,550 River St,95060,(831) 295-6582,36.98261371947986,-122.02936357270187
California,Santa Maria,467 E Betteravia Rd,93454,(805) 345-2293,34.92487030857114,-120.42587330798663
California,Santa Monica,1218 3rd Street Promenade,90401,(310) 458-2141,34.017694847287615,-118.49898555066977
California,Santa Monica,2025 Wilshire Blvd,90403,(310) 453-0057,34.031985802324826,-118.48289062822437
California,Santa Rosa,2182 Santa Rosa Ave,95407,(707) 228-1023,38.417914,-122.712384
California,Santa Rosa,336A Coddingtown Ctr,95401,(707) 521-0012,38.458189,-122.730058
California,Santee,9828 Mission Gorge Rd,92071,(619) 655-4784,32.84094168295178,-116.98145925799042
California,Seal Beach,12359 Seal Beach Blvd,90740,(562) 375-6983,33.782980697390315,-118.07234152637193
California,Selma,3120 Floral Ave,93662,(559) 896-1673,36.5770809467151,-119.63236487017957
California,Sherman Oaks,14006 Riverside Dr,91423,(818) 804-2001,34.15712364375744,-118.43730202944775
California,Sherman Oaks,14708 Ventura Blvd,91403,(818) 455-4798,34.1515368,-118.4536181
California,Signal Hill,959 E. Spring Street,90755,(562) 206-7199,33.8119251213897,-118.18127129861409
California,Simi Valley,1263 Simi Town Center Way,93065,(805) 584-0514,34.28415480521016,-118.77535695629956
California,South Gate,4709 Firestone Blvd,90280,(323) 214-1059,33.9525112377641,-118.18563671595592
California,South Lake Tahoe,3640-A Lake Tahoe Blvd,96150,(530) 314-2139,38.9480034,-119.9580772
California,South Pasadena,901 Fair Oaks Ave,91030,(626) 517-2888,34.11565,-118.150757
California,Stockton,10710 Trinity Pkwy,95219,(209) 390-1023,38.05395499439947,-121.3747237642123
California,Stockton,1205 E Hammer Ln,95210,(209) 800-0870,38.02125776284088,-121.29702545636836
California,Stockton,4940 Pacific Ave,95207,(209) 476-7217,37.9946689016608,-121.3134374044431
California,Studio City,12175 Ventura Blvd,91604,(818) 508-0190,34.14355872066686,-118.3977093037214
California,Sunnyvale,324 W El Camino Real,94087,(408) 773-1304,37.36775027541723,-122.03609420918197
California,TEHACHAPI,340 Tucker Road,93561,(661) 518-1044,35.1305355748501,-118.46697338475585
California,Tarzana,18700 Ventura Blvd,91356,(818) 514-2844,34.170303807427636,-118.54051172413917
California,Temecula,26440 Ynez Rd,92591,(951) 296-5438,33.52408850756488,-117.15898745674133
California,Temecula,32195 Temecula Pkwy,92592,(951) 303-6215,33.4809812683985,-117.09695558341605
California,Temple City,5809 Rosemead Blvd,91780,(626) 940-3581,34.1046359513651,-118.07389619479198
California,Thousand Oaks,162 W Hillcrest Dr,91360,(805) 230-9193,34.1820459658838,-118.88495811319467
California,Thousand Oaks,935 Broadbeck Dr,91320,(805) 499-3561,34.19117099752564,-118.93773068467311
California,Torrance,21300 Hawthorne Blvd,90503,(424) 254-2378,33.834988127866936,-118.35280468949355
California,Torrance,24631 Crenshaw Blvd,90505,(310) 530-0690,33.8018331177992,-118.32843426381467
California,Torrance,3525 W Carson St,90503,(424) 206-4202,33.83215801411273,-118.34935026655486
California,Tracy,2512 Naglee Rd,95304,(209) 834-8845,37.75546914528877,-121.46494850107536
California,Tulare,1108 E Prosperity Ave,93274,(559) 358-3169,36.22621558670599,-119.3289380460501
California,Turlock,3090 Countryside Dr,95380,(209) 656-7647,37.520645,-120.880929
California,Tustin,13348 Newport Ave,92780,(714) 665-6730,33.74511975475779,-117.8146216464283
California,Tustin,15040 Kensington Park Dr,92782,(714) 259-7739,33.7126826891727,-117.81714811920403
California,Ukiah,596 E Perkins St,95482,(707) 472-0539,39.15164538001051,-123.19935967361067
California,Union City,30920 Dyer St,94587,(510) 404-7721,37.60245939031628,-122.06906675183507
California,Upland,1053 E 19th St,91784,(909) 694-0384,34.13235746297344,-117.63666496810549
California,Upland,1092 N Mountain Ave,91786,(909) 579-0999,34.108382301763804,-117.66990272822437
California,Upland,2057 W Baseline Rd,91784,(909) 256-0908,34.121970163634444,-117.69212302883524
California,Vacaville,1620 E Monte Vista Ave,95688,(707) 450-1329,38.36690410069812,-121.96241685072005
California,Valencia,24405 Town Center Dr,91355,(661) 284-2461,34.41790748929424,-118.5614417741988
California,Valencia,28102 Newhall Ranch Rd,91355,(661) 257-9526,34.44265729728954,-118.57377455752419
California,Vallejo,1195 Admiral Callaghan Ln,94591,(707) 552-1024,38.1369577435362,-122.2150147826651
California,Van Nuys,5600 Van Nuys Blvd,91401,(818) 455-4560,34.17231389842011,-118.44830875031454
California,Ventura,1145 S Victoria Ave,93003,(805) 650-6627,34.264407012492484,-119.21258497340176
California,Ventura,488 S Mills Rd,93003,(805) 654-0143,34.26674003395353,-119.2460874911045
California,Victorville,12304 Palmdale Rd,92392,(442) 219-0230,34.5071638,-117.3959003
California,Visalia,248 Plaza Drive,93291,(559) 553-1044,36.332455,-119.391475
California,Visalia,4219 S Mooney Blvd,93277,(559) 636-8475,36.29236398834468,-119.31439473346643
California,Vista,30 Main St,92083,(760) 639-0529,33.20063547165459,-117.24497542595412
California,Walnut,21710 Valley Blvd,91789,(909) 595-1502,34.027889767641526,-117.8338552181055
California,Walnut Creek,1158 Locust St,94596,(925) 935-9307,37.89568245753107,-122.06095857729815
California,Walnut Park,2110 E Florence Ave,90255,(323) 214-1054,33.9744431419157,-118.23350551717931
California,Watsonville,1075 Main St,95076,(831) 322-2012,36.915543102429076,-121.76879151061497
California,West Covina,143 N Barranca St,91791,(626) 967-6680,34.07314386726373,-117.88217626053346
California,West Covina,427 Plaza Dr,91790,(626) 384-2211,34.0711073,-117.9327713
California,West Sacramento,2155 Town Center Plz,95691,(916) 273-8977,38.55033024778676,-121.5388056026676
California,West Sacramento,775 Ikea Ct,95605,(916) 617-2545,38.59004108927359,-121.54966721860711
California,Westlake Village,5754 Lindero Canyon Rd,91362,(818) 597-1603,34.15371791770557,-118.79654041226877
California,Westminster,6777 Westminster Blvd,92683,(714) 487-5126,33.76113750000002,-118.00804959386578
California,Whittier,10120 Carmenita Rd,90605,(562) 457-5327,33.941058210661204,-118.04621113497029
California,Whittier,11840 Whittier Blvd,90601,(562) 478-8302,33.97803602844642,-118.0492989904429
California,Whittier,15528 Whittier Blvd,90603,(562) 371-2028,33.94439989978713,-117.9948264484621
California,Wildomar,24032 Clinton Keith Rd,92595,(951) 574-1277,33.59851897904945,-117.23968004374416
California,Winchester,35938 Winchester Rd,92596,(951) 566-2041,33.6298625,-117.091286
California,Woodland Hills,5430 Topanga Canyon Blvd,91367,(818) 710-0466,34.16986787563659,-118.60526541245811
California,Woodland Hills,6443 Canoga Ave,91367,(747) 888-5101,34.187767500856566,-118.59791897265188
California,Yuba City,1005 Gray Ave,95991,(530) 671-1581,39.14265330346745,-121.6297385638926
California,Yucaipa,31495 Yucaipa Blvd,92399,(909) 316-2710,34.02828467038073,-117.1167986409316
California,Yucca Valley,57592 29 Palms Hwy,92284,(760) 853-2035,34.126852705722854,-116.40834505474285
Colorado,Arvada,12550 W 64th Ave,80004,(303) 432-1101,39.81138704861359,-105.13967820960727
Colorado,Arvada,5324 Wadsworth Byp,80002,(303) 431-6963,39.79394227375821,-105.08027198374691
Colorado,Arvada,8797 Wadsworth Blvd,80003,(720) 898-8140,39.85612606572959,-105.08244000828381
Colorado,Aurora,1205 S Havana St,80012,(303) 369-3700,39.69457177229466,-104.8662978604334
Colorado,Aurora,13700 E Colfax Ave,80011,(303) 344-2140,39.739898551963535,-104.82777096440066
Colorado,Aurora,15280 E Iliff Ave,80014,(720) 747-9542,39.67436520279655,-104.81065555398465
Colorado,Aurora,2300 S Parker Rd,80231,(303) 873-1300,39.674387993599474,-104.86957713591516
Colorado,Aurora,24100 E Commons Ave,80016,(303) 400-3855,39.604272012876336,-104.70758860763118
Colorado,Aurora,3455 N Salida St,80011,(303) 371-2334,39.76402984439589,-104.77470535421776
Colorado,Aurora,4205 S Buckley Rd,80013,(720) 870-3342,39.64020420778057,-104.79204735446893
Colorado,Aurora,6710 S Cornerstar Way,80016,(303) 586-8301,39.59452341563532,-104.80637262864582
Colorado,Boulder,1650 28th St,80301,(720) 406-0500,40.01652978308289,-105.25789239922813
Colorado,Brighton,2046 Prairie Center Pkwy,80601,(720) 259-5627,39.9569298,-104.7756281
Colorado,Castle Rock,5642 Allen Way,80108,(303) 663-0552,39.41447192362294,-104.86400426898177
Colorado,Castle Rock,5954 Promenade Pkwy.,80108,(720) 983-1478,39.4194772,-104.8774765
Colorado,Centennial,12073 E Arapahoe Rd,80112,(303) 708-1733,39.59543648274558,-104.84878740643137
Colorado,Centennial,20209 E Smoky Hill Rd,80015,(303) 627-9080,39.611241369091566,-104.75260376408829
Colorado,Centennial,8255 S Chester St,80112,(303) 768-0102,39.56723688545382,-104.88050550398464
Colorado,Clifton,3233 I-70 Business Loop,81520,(970) 684-2023,39.089954653952205,-108.45311398457144
Colorado,Colorado Springs,1370 Garden Of The Gods Rd,80907,(719) 264-9749,38.89705693862437,-104.85264341264832
Colorado,Colorado Springs,17 S Tejon St,80903,(719) 632-4311,38.833100878161346,-104.82310091436597
Colorado,Colorado Springs,1846 Democracy Pt,80908,(719) 249-1407,38.99004614343266,-104.79606569138431
Colorado,Colorado Springs,2130 Southgate Rd,80906,(719) 634-7199,38.801806979117345,-104.81914475674591
Colorado,Colorado Springs,3026 New Center Pt,80922,(719) 572-6699,38.877091500581365,-104.71877154652476
Colorado,Colorado Springs,5079 N Academy Blvd,80918,(719) 266-1702,38.904331974959575,-104.77416895595184
Colorado,Colorado Springs,5102 N Nevada Ave,80918,(719) 219-0509,38.90253350713101,-104.81810723064962
Colorado,Colorado Springs,6530 Tutt Blvd,80923,(719) 895-3968,38.9267899,-104.715689
Colorado,Colorado Springs,7818 N Academy Blvd,80920,(719) 531-6800,38.94636373455528,-104.80229773007682
Colorado,Colorado Springs,895 N Academy Blvd,80909,(719) 572-1727,38.845449020855405,-104.75657311532689
Colorado,Commerce City,5988 Dahlia St,80022,(303) 227-9466,39.804007450899896,-104.93082754723872
Colorado,Denver,140 Steele St,80206,(303) 329-6466,39.71855993156765,-104.94956138220903
Colorado,Denver,1480 16th St,80202,(720) 904-2052,39.75019553674283,-104.99920669863127
Colorado,Denver,1600 California St,80202,(303) 615-5818,39.74538157729719,-104.9916039656581
Colorado,Denver,1644 E Evans Ave,80210,(303) 722-4121,39.67828797290773,-104.96780777696745
Colorado,Denver,2500 E Colfax Ave,80206,(303) 388-5300,39.739954962720255,-104.95722691840268
Colorado,Denver,2760 S Colorado Blvd,80222,(303) 758-0824,39.66641697071331,-104.93988694049278
Colorado,Denver,3600 W 32nd Ave,80211,(303) 964-3323,39.76198306036484,-105.03484099047398
Colorado,Denver,371 E Alameda Ave,80209,(303) 733-1331,39.71150569725132,-104.98309278771421
Colorado,Denver,4490 Peoria St,80239,(303) 307-1096,39.77767107318909,-104.84639511863828
Colorado,Denver,550 N Broadway,80203,(303) 866-0725,39.7254866850594,-104.98701717881352
Colorado,Denver,7350 E Hampden Ave,80231,(303) 741-8980,39.652405,-104.9032
Colorado,Denver,7400 E 29th Ave,80238,(303) 316-0469,39.75785136019702,-104.9015615788361
Colorado,Denver,745 Colorado Blvd,80206,(303) 333-2121,39.728314327154855,-104.94099338871558
Colorado,Denver,8100 W Crestline Ave,80123,(303) 501-1101,39.61705408300559,-105.08843587055225
Colorado,Denver,820 S Monaco Pkwy,80224,(303) 316-9466,39.70179929627504,-104.9124563696248
Colorado,Englewood,333 W Hampden Ave,80110,(303) 761-3411,39.653526215266915,-104.99219002665392
Colorado,Falcon,7565 Falcon Market Pl,80831,(719) 719-2087,38.94189799999999,-104.6084596
Colorado,Federal Heights,10320 Federal Blvd,80260,(720) 566-0233,39.88426668267913,-105.02461434062457
Colorado,Fort Collins,2120 E Harmony Rd,80528,(970) 530-3200,40.523776961622914,-105.03682653305447
Colorado,Fort Collins,649 S College Ave,80525,(970) 407-1446,40.578301318114626,-105.07743296562819
Colorado,Grand Junction,2504 Highway 6 And 50,81505,(970) 257-1966,39.08348906133941,-108.58800031831296
Colorado,Greeley,807 17th St,80631,(970) 346-8700,40.41203572235011,-104.69148192212145
Colorado,Greenwood Village,6570 S Yosemite St,80111,(303) 488-2002,39.596838857288965,-104.8880827712095
Colorado,Greenwood Village,8000 E Belleview Ave,80111,(303) 694-3094,39.62380733189591,-104.89612552316734
Colorado,Highlands Ranch,2209 W Wildcat Reserve Pkwy,80129,(303) 470-6300,39.53738519289787,-105.0139625172859
Colorado,Highlands Ranch,9579 S University Blvd,80126,(720) 961-7866,39.54162550907136,-104.94083181759328
Colorado,Lafayette,548 W South Boulder Rd,80026,(303) 302-1878,39.98638566440582,-105.09794396611215
Colorado,Lakewood,14255 W Colfax Ave,80401,(303) 278-0991,39.73410047023791,-105.15997528857099
Colorado,Lakewood,145 Union Blvd,80228,(303) 989-5161,39.71746050491897,-105.1336252505962
Colorado,Lakewood,3170 S Wadsworth Blvd,80227,(303) 986-4424,39.660728354367535,-105.080897562583
Colorado,Lakewood,355 S Wadsworth Blvd,80226,(720) 963-0999,39.7102963661781,-105.08214599999997
Colorado,Lakewood,7355 W Colfax Ave,80214,(303) 274-1131,39.740561096559325,-105.07830536467429
Colorado,Littleton,12512 W Ken Caryl Ave,80127,(720) 981-7023,39.58031768885037,-105.13499231987998
Colorado,Littleton,5699 S Broadway,80121,(303) 794-3437,39.61343789917304,-104.9883932901783
Colorado,Littleton,7515 S University Blvd,80122,(303) 797-7001,39.580206500000024,-104.96132583374691
Colorado,Littleton,8501 W Bowles Ave,80123,(303) 973-3401,39.61175897727098,-105.0967189557814
Colorado,Lone Tree,8515 Park Meadows Center Dr,80124,(303) 790-6029,39.56278728224383,-104.87575617480256
Colorado,Lone Tree,9500 Heritage Hills Cir,80124,(303) 792-0611,39.53712395324733,-104.87947276119417
Colorado,Longmont,1100 Ken Pratt Blvd,80501,(303) 651-6763,40.152831349490235,-105.11109899938833
Colorado,Longmont,1708 Main Street,80501,(303) 485-6369,40.189207,-105.101803
Colorado,Louisville,375 McCaslin Blvd,80027,(720) 890-0670,39.96621596945101,-105.16397033843793
Colorado,Loveland,1421 W Eisenhower Blvd,80537,(970) 635-0099,40.407525881391514,-105.09786383988114
Colorado,Loveland,1569 Fall River Dr,80538,(970) 461-8900,40.40855831435636,-105.00775054198982
Colorado,Parker,18400 Cottonwood Dr,80138,(720) 398-6372,39.557209943267296,-104.77792741676375
Colorado,Parker,18701 E Mainstreet,80134,(720) 851-5050,39.51869503455084,-104.77040223558197
Colorado,Pueblo,3230 N Elizabeth St,81008,(719) 404-2900,38.303279216278455,-104.61498663414201
Colorado,Silverthorne,247 Rainbow Dr,80498,(970) 468-0671,39.630287419244226,-106.07142220468808
Colorado,Superior,1940 Coalton Rd,80027,(720) 863-7857,39.928428212695195,-105.14312552946531
Colorado,Thornton,815 Thornton Pkwy,80229,(303) 452-2722,39.871176873235825,-104.97624578605593
Colorado,Thornton,951 E 120th Ave,80233,(720) 929-0499,39.91436710001901,-104.97505228674999
Colorado,Westminster,14452 Orchard Pkwy,80023,(303) 451-9591,39.958954184802,-104.99278568917153
Colorado,Westminster,5160 W 120th Ave.,80020,(720) 887-3646,39.912141,-105.051381
Colorado,Westminster,7303 Federal Blvd,80030,(303) 872-5023,39.82858463959826,-105.02545559751232
Colorado,Wheat Ridge,3294 Youngfield St,80033,(303) 234-1600,39.76299604016307,-105.14005551560047
Connecticut,Branford,2 Commercial Pkwy,06405,(203) 315-1506,41.27731142213908,-72.8283174214896
Connecticut,Bridgeport,275 E Main St,06608,(203) 330-9419,41.17842823720663,-73.18194729049281
Connecticut,Bristol,1444 Farmington Ave,06010,(860) 973-0889,41.698897502330716,-72.89495693060974
Connecticut,Canton,110 Albany Tpke,06019,(860) 693-4457,41.82332322507213,-72.88322699772891
Connecticut,Danbury,115 Mill Plain Rd,06811,(203) 730-2220,41.392482182817886,-73.52250704264242
Connecticut,Danbury,7 Backus Ave,06810,(203) 730-2989,41.380326,-73.47943
Connecticut,Danbury,81 Newtown Rd,06810,(475) 529-2112,41.409697,-73.41132
Connecticut,Darien,71 Post Rd,06820,(203) 662-9228,41.09095263406827,-73.45564055398461
Connecticut,Darien,I-95 Darien Nb Service Plaza,06820,(203) 309-5714,41.0806742,-73.4614135
Connecticut,Enfield,7 Hazard Ave,06082,(860) 741-0801,41.99055716434799,-72.58473316774234
Connecticut,Fairfield,340 Grasmere Ave,06824,(203) 255-7665,41.1571948638277,-73.24036100000001
Connecticut,Glastonbury,140 Glastonbury Blvd,06033,(860) 652-9960,41.72038057442732,-72.62092960479768
Connecticut,Groton,258 Route 12,06340,(860) 910-0664,41.36994575460215,-72.07046013643532
Connecticut,Hamden,2165 Dixwell Ave,06514,(203) 230-8185,41.36879390226055,-72.91821687838001
Connecticut,Manchester,48 Hale Rd,06042,(860) 644-0223,41.81276427147483,-72.52713871794923
Connecticut,Middletown,808 Washington St,06457,(860) 344-9588,41.55500659403476,-72.67927092030962
Connecticut,Milford,1319 Boston Post Rd,06460,(203) 877-1530,41.23845336526143,-73.03542477607482
Connecticut,Monroe,143 Purdy Hill Rd,06468,(475) 474-6211,41.302191,-73.224383
Connecticut,New Haven,910 Chapel St,06510,(203) 785-0799,41.30639517209296,-72.92693399222446
Connecticut,New Milford,169 Danbury Rd,06776,(860) 799-4038,41.549017261167265,-73.4167131874982
Connecticut,Newington,3575 Berlin Tpke,06111,(860) 667-7094,41.650066,-72.729361
Connecticut,Norwich,30 Salem Tpke,06360,(860) 319-0992,41.51342811040123,-72.10696108996953
Connecticut,Riverside,1233 E Putnam Ave,06878,(203) 637-0078,41.04240407701103,-73.57833602738467
Connecticut,Shelton,701 Bridgeport Ave,06484,(203) 225-2766,41.27588197554277,-73.12399875520805
Connecticut,Southbury,100 Main St N,06488,(203) 586-4079,41.47851730217249,-73.21051307773098
Connecticut,Southington,785 Queen St,06489,(860) 276-3912,41.638016010142024,-72.87337302481967
Connecticut,Stamford,1207 High Ridge Rd,06905,(203) 487-5811,41.110480739683055,-73.54553171219086
Connecticut,Stratford,100 E Main St,06614,(203) 275-0964,41.2018127,-73.1166848
Connecticut,Torrington,1313 E Main St,06790,(860) 866-4116,41.8171965763348,-73.09207335442963
Connecticut,Wallingford,1094 N Colony Rd,06492,(203) 265-3159,41.49764234495459,-72.80875095788363
Connecticut,West Hartford,1457 New Britain Ave,06110,(860) 521-0479,41.72472959416484,-72.75709768217337
Connecticut,West Hartford,966 Farmington Ave,06107,(860) 586-8281,41.76188938686709,-72.74307215985726
Connecticut,West Haven,354 Saw Mill Rd,06516,(203) 931-6157,41.27118782688273,-72.97258820765478
Connecticut,Wethersfield,1084 Silas Deane Hwy,06109,(860) 257-9027,41.69268358085449,-72.65518356501957
Delaware,Bear,1200 Pulaski Hwy,19701,(302) 520-2600,39.629349119807905,-75.66592717352388
Delaware,Camden,30 King Blvd.,19934,(302) 387-0622,39.106820078525864,-75.54127837669785
Delaware,Dover,1141 N Dupont Hwy,19901,(302) 678-5012,39.18678446887631,-75.53655817470087
Delaware,Middletown,657 Middletown Warwick Rd,19709,(302) 376-9584,39.44580632021666,-75.73467347927613
Delaware,New Castle,115A S Dupont Hwy,19720,(302) 326-1505,39.66378445341222,-75.60687249570083
Delaware,Newark,132 Christiana Mall,19702,(302) 731-3037,39.677884,-75.652284
Delaware,Newark,136 E Main St,19711,(302) 861-8002,39.68377823512398,-75.74772734634695
Delaware,Newark,60 Geoffrey Dr,19713,(302) 366-1296,39.68769436463868,-75.65275170915139
Delaware,Rehoboth Beach,36453 Seaside Outlet Dr,19971,(302) 227-4900,38.71784480353341,-75.11120954268412
Delaware,Wilmington,2209 Concord Pike,19803,(302) 304-8343,39.7909214,-75.5458742
Delaware,Wilmington,3700 Kirkwood Hwy,19808,(302) 994-1069,39.73293717615314,-75.63955922368905
Florida,Altamonte Springs,400 W State Road 436,32714,(407) 682-2747,28.661298307235594,-81.39668856209812
Florida,Apopka,1215 W Orange Blossom Trl,32712,(689) 336-0006,28.68558985179515,-81.5325605926077
Florida,Apopka,2201 E Semoran Blvd,32703,(407) 814-1207,28.673551495033866,-81.46992335735763
Florida,Aventura,18815 Biscayne Blvd,33180,(786) 955-2150,25.95018503822516,-80.14567645491081
Florida,Boca Raton,1666 N Federal Hwy,33432,(561) 206-0830,26.365541610858394,-80.07898699171113
Florida,Boca Raton,2301 Glades Rd,33431,(561) 443-5540,26.368827400578603,-80.1280500709588
Florida,Boca Raton,5560 N Military Trl,33496,(561) 995-0924,26.40076753815862,-80.12042140434681
Florida,Boca Raton,7028 W Palmetto Park Rd,33433,(561) 206-0144,26.349511355304283,-80.15744495676324
Florida,Boca Raton,9930 Glades Rd,33434,(561) 477-8340,26.365986740276462,-80.20235730857033
Florida,Boynton Beach,1620 S Federal Hwy,33435,(561) 200-1013,26.513674959588972,-80.05878217288577
Florida,Boynton Beach,1780 N Congress Ave,33426,(561) 732-2282,26.54267599540657,-80.09020997864808
Florida,Boynton Beach,8790 Boynton Beach Blvd,33472,(561) 739-9871,26.5272244006721,-80.18612640244675
Florida,Bradenton,1608 Cortez Rd W,34207,(941) 752-0425,27.463184540263185,-82.57834493108192
Florida,Brandon,103 Brandon Town Center Dr,33511,(813) 330-3001,27.938747769594823,-82.32362885613423
Florida,Brandon,11137 Causeway Blvd,33511,(656) 347-2440,27.922678,-82.32433809999999
Florida,Brandon,459 Brandon Town Center Mall,33511,(813) 689-6816,27.938755258308017,-82.32362453599272
Florida,Brandon,829 E Bloomingdale Ave,33511,(813) 423-6384,27.89315296173319,-82.27232598834325
Florida,Brooksville,13207 Cortez Blvd,34613,(352) 597-4356,28.53437690982307,-82.50659652729814
Florida,Cape Coral,2060 NE Pine Island Rd,33909,(239) 424-6451,26.672886267256903,-81.92853450273395
Florida,Cape Coral,2207 Del Prado Blvd S,33990,(239) 458-3944,26.610982702781204,-81.94054500320021
Florida,Casselberry,1387 State Road 436,32707,(321) 280-9620,28.6296537483117,-81.31860203099693
Florida,Clearwater,2537 Countryside Blvd,33761,(727) 230-0780,28.014677340939595,-82.73444402941567
Florida,Clearwater,2662 Gulf To Bay Blvd,33759,(727) 724-1768,27.961145358138484,-82.72752726149133
Florida,Clearwater,5360 East Bay Drive,33764,(727) 507-0041,27.916835974551216,-82.73144484171621
Florida,Clermont,1495 E Hwy 50,34711,(352) 394-0175,28.545698702412185,-81.73009849431196
Florida,Clermont,610 Cagan View Rd,34714,(352) 227-1245,28.353095,-81.67527167
Florida,Coral Springs,1775 N University Dr,33071,(954) 341-0821,26.252865595198625,-80.25231916791012
Florida,Coral Springs,4220 N State Road 7,33073,(954) 960-4000,26.28354967969935,-80.20268216026798
Florida,Coral Springs,4600 N University Dr,33067,(954) 575-4174,26.287371601249518,-80.25113432945467
Florida,Crestview,2680 S Ferdon Blvd,32536,(850) 331-6212,30.732538,-86.567108
Florida,Cutler Bay,19151 S Dixie Hwy,33157,(786) 231-5120,25.589673366046544,-80.35863462852154
Florida,Dania Beach,1780 Stirling Rd,33004,(954) 925-4381,26.04869664021097,-80.15950361620679
Florida,Davenport,1091 Posner Blvd,33837,(863) 588-0448,28.2266204,-81.6435554
Florida,Davenport,2116 Triglia Way,33896,(863) 758-4041,28.258987465107488,-81.59820141425219
Florida,Davenport,49539 Hwy  27,33897,(863) 251-9141,28.30661218166159,-81.66666103494873
Florida,Davie,2110 S University Dr,33324,(954) 400-7464,26.09429379209461,-80.2503511410495
Florida,Davie,5796 South University Dr,33328,(954) 689-0559,26.047042315061336,-80.2510542978095
Florida,Daytona Beach,1425 Cornerstone Blvd,32117,(386) 274-4726,29.218879255286186,-81.09709381165675
Florida,Daytona Beach,2400 W International Speedway Blvd,32114,(386) 252-6011,29.182064012738767,-81.0814084478095
Florida,Deerfield Beach,3311 W Hillsboro Blvd,33442,(754) 305-0881,26.318445294570278,-80.14832948344407
Florida,Deerfield Beach,777 S Federal Hwy,33441,(954) 281-5643,26.30708740220849,-80.09320808252357
Florida,Deland,2335 S Woodland Blvd,32720,(386) 469-9279,28.98699069226117,-81.29912887430243
Florida,Delray Beach,4789 W Atlantic Ave,33445,(561) 666-1003,26.4582441,-80.1201125
Florida,Delray Beach,520 Linton Blvd,33444,(561) 276-2093,26.43919398983961,-80.07845578886025
Florida,Destin,4281 Legendary Dr,32541,(850) 269-0187,30.390134590565765,-86.42484252704122
Florida,Doral,2000 NW 87th Ave,33172,(786) 464-1551,25.7934463,-80.3375674
Florida,Doral,5875 NW 105th Ct,33178,(786) 361-1243,25.82647602189912,-80.36821689508913
Florida,Ellenton,6020 US Highway 301 N,34222,(941) 803-4009,27.5320691330393,-82.50177610682883
Florida,Estero,22941 Lyden Dr,33928,(239) 495-3165,26.403595686440802,-81.81134813032403
Florida,Fern Park,103 State Road 436,32730,(407) 834-0165,28.659664072586867,-81.34078245005861
Florida,Fort Lauderdale,1515 SE 17th St,33316,(954) 400-7493,26.10086495855604,-80.12665735988514
Florida,Fort Lauderdale,1736 N Federal Hwy,33305,(954) 400-5028,26.150564531527802,-80.11888650267343
Florida,Fort Lauderdale,2610 W Broward Blvd,33312,(954) 583-8336,26.121287762235482,-80.17647565884374
Florida,Fort Lauderdale,4850 N Federal Hwy,33308,(954) 400-7485,26.18776079655633,-80.11555793005942
Florida,Fort Myers,10010 University Plaza Drive,33913,(239) 437-5719,26.491833852496008,-81.78677409014574
Florida,Fort Myers,12635 S Cleveland Ave,33907,(239) 204-5244,26.55869732673191,-81.8711361070105
Florida,Fort Myers,8061 Dani Dr,33966,(239) 275-4076,26.608337734485225,-81.81053723002685
Florida,Fort Pierce,5545 Okeechobee Rd,34947,(772) 264-4082,27.4174444,-80.3814096
Florida,Fort Walton Beach,227 Carol Ave NW,32548,(850) 855-4675,30.426182446281953,-86.64068181259475
Florida,Ft Lauderdale,6320 N Andrews Ave,33309,(954) 200-6538,26.204786342170173,-80.14741756625307
Florida,Gainesville,1432 W University Ave,32603,(352) 372-5330,29.652292261963808,-82.34149667607767
Florida,Gainesville,2225 NW 13th St,32609,(352) 378-7751,29.67364120397084,-82.33867029289968
Florida,Gainesville,3841 SW Archer Rd,32608,(352) 371-9396,29.619406292195045,-82.38130672684525
Florida,Golf,11500 S Military Trl,33436,(561) 880-9919,26.50952085695414,-80.12268647805897
Florida,Greenacres,6714 Forest Hill Blvd,33413,(561) 432-3346,26.648234703951772,-80.14618339386577
Florida,Gulf Breeze,725 Gulf Breeze Parkway,32561,(850) 935-3049,30.357889398929178,-87.16543510612772
Florida,Haines City,35654 US 27 N,33844,(863) 758-4029,28.118144428863214,-81.64056379851472
Florida,Hialeah,18461 NW 67th Ave,33015,(305) 558-4282,25.941268349053956,-80.30643628822202
Florida,Hialeah,405 W 49th St,33012,(305) 512-4114,25.867040082258224,-80.29198155088527
Florida,Hialeah,7925 Hialeah Gardens Blvd,33018,(305) 982-8050,25.89481690606795,-80.35074015027618
Florida,Hollywood,1774 Sheridan St,33020,(954) 923-4401,26.033056115486787,-80.1420688426424
Florida,Homestead,2500 NE 10th Ct,33033,(305) 245-5131,25.479008795929524,-80.44192050166987
Florida,Inverness,911 W Main St,34450,(352) 423-7227,28.835558491225328,-82.34120761532687
Florida,Jacksonville,11113 San Jose Blvd,32223,(904) 268-2342,30.173556268870147,-81.62783786026853
Florida,Jacksonville,11919 Atlantic Blvd,32225,(904) 893-4518,30.3216706,-81.4954745
Florida,Jacksonville,13546 Beach Blvd,32224,(904) 992-4255,30.28711282555381,-81.46036844536275
Florida,Jacksonville,13920 Old Saint Augustine Rd,32258,(904) 886-9554,30.14131050942163,-81.54639779028463
Florida,Jacksonville,3860 University Blvd W,32217,(904) 638-4475,30.262910492009855,-81.62294869386577
Florida,Jacksonville,4495 Roosevelt Blvd,32210,(904) 650-2191,30.280609135302186,-81.71787517348018
Florida,Jacksonville,4865 Town Center Pkwy,32246,(904) 997-0481,30.254542390056276,-81.5327619073576
Florida,Jacksonville,50 Riverside Ave,32202,(904) 549-6143,30.323941585931433,-81.67060457614869
Florida,Jacksonville,5801 Beach Blvd,32207,(904) 750-6166,30.293667736179632,-81.6040481760748
Florida,Jacksonville,790 Skymarks Dr,32218,(904) 757-3900,30.481429584970787,-81.63747585920999
Florida,Jacksonville,8635 Blanding Blvd,32244,(904) 772-1322,30.19383572515759,-81.73844718811141
Florida,Jacksonville,9172 Baymeadows Rd,32256,(904) 750-3506,30.220471,-81.567803
Florida,Jacksonville,9395 Atlantic Blvd,32225,(904) 721-5658,30.319365276105458,-81.55489914239513
Florida,Jacksonville,9671 Argyle Forest Blvd,32222,(904) 337-3232,30.1963032,-81.8299588
Florida,Jacksonville Beach,1758 3rd St S,32250,(904) 249-7277,30.271247042298853,-81.38887430491081
Florida,Jupiter,6274 W Indiantown Rd,33458,(561) 354-5310,26.93422373810846,-80.1306198341141
Florida,Kissimmee,3254 N John Young Pkwy,34741,(407) 846-3364,28.345580340826608,-81.42075173497028
Florida,Kissimmee,3275 Vineland Rd,34746,(407) 465-0749,28.346394012130798,-81.48621927020517
Florida,Kissimmee,4390 W Vine St.,34746,(689) 215-5494,28.3028332,-81.4569878
Florida,Kissimmee,4450 Pleasant Hill Rd,34746,(407) 818-1147,28.15690633237268,-81.44062779068582
Florida,Kissimmee,6210 W Irlo Bronson Memorial Hwy,34747,(321) 939-2059,28.3321649,-81.5327309
Florida,Kissimmee,8124 W Irlo Bronson Hwy,34747,(407) 329-4336,28.3464523,-81.61128479999999
Florida,Lake City,3017 W US Highway 90,32055,(386) 269-1507,30.180708,-82.681741
Florida,Lake Mary,4315 W Lake Mary Blvd,32746,(407) 321-0844,28.755673212555635,-81.35075833804609
Florida,Lake Worth,4400 Hypoluxo Rd,33462,(561) 621-1733,26.571463,-80.112041
Florida,Lake Worth,6177 S Jog Rd,33467,(561) 246-3080,26.58757239392207,-80.14721898800096
Florida,Lake Worth,8746 Lake Worth Rd,33467,(561) 249-8103,26.616484908120103,-80.18448790794852
Florida,Lakeland,3434 S Florida Ave,33803,(863) 248-4371,28.001671375003713,-81.95652422280466
Florida,Lakeland,4204 US Hwy 98 N,33809,(863) 858-6231,28.0958373,-81.9746955
Florida,Lakewood Ranch,11715 State Road 70 E,34202,(941) 756-0455,27.432713755172138,-82.42544192235476
Florida,Largo,10160 Ulmerton Rd,33771,(727) 501-1354,27.89407785160986,-82.78005961130967
Florida,Lauderhill,5435 N University Dr,33351,(954) 742-3650,26.191549305741724,-80.25268509264242
Florida,Leesburg,10450 US Highway 441,34788,(352) 504-0368,28.821619,-81.78343
Florida,Longwood,2700 W State Road 434,32779,(689) 345-5119,28.68665,-81.41442
Florida,Longwood,860 W. FL-434,32750,(689) 223-4620,28.697637680556507,-81.3309117246624
Florida,Lutz,25442 Sierra Center Blvd,33559,(813) 948-0007,28.19292175008535,-82.39507270160111
Florida,Margate,5671 W Atlantic Blvd,33063,(754) 704-4976,26.2358896,-80.2033278
Florida,Melbourne,1563 W New Haven Ave,32904,(321) 729-6211,28.078395002133185,-80.64752089079002
Florida,Melbourne,2322 Harnett Dr,32940,(321) 639-1830,28.23914143969696,-80.72848018019351
Florida,Melbourne,4999 N Wickham Rd,32940,(321) 241-0398,28.18990817924318,-80.67131369386576
Florida,Miami,10141 W Flagler St,33174,(305) 554-8674,25.7692416,-80.3598109
Florida,Miami,10600 N Kendall Dr,33176,(786) 361-1296,25.685885962852748,-80.36439778566466
Florida,Miami,110 NW 42nd Ave,33126,(786) 361-1258,25.772722828477573,-80.26397222787813
Florida,Miami,13612 SW 88th St,33186,(305) 408-6557,25.68454606063215,-80.41519647462161
Florida,Miami,14401 SW 42nd St,33175,(786) 361-1260,25.72909684050795,-80.42799722019681
Florida,Miami,15221 SW 127th Ave,33177,(786) 250-0004,25.626513880287373,-80.39458256166245
Florida,Miami,1700 NW 117th Pl,33182,(786) 361-1284,25.7897971,-80.3870259
Florida,Miami,19565 Biscayne Blvd,33180,(305) 931-8583,25.9572124333516,-80.14331039800255
Florida,Miami,2200 SW 87th Ave,33165,(305) 221-5563,25.749186841696304,-80.33610395455389
Florida,Miami,2235 SW 37th Ave,33145,(786) 441-2385,25.74931218650068,-80.25426375305847
Florida,Miami,3201 N Miami Ave,33127,(786) 361-1265,25.80792766479572,-80.1949852194767
Florida,Miami,5600 Waterford District Dr,33126,(786) 361-1024,25.78133636523049,-80.28795692372597
Florida,Miami,7230 NW 36th St,33166,(305) 591-2742,25.80882356127241,-80.31533221824446
Florida,Miami,891 South Miami Avenue,33130,(786) 361-1540,25.76532373454779,-80.19307918497597
Florida,Miami Gardens,18299 NW 27th Ave,33056,(786) 463-0052,25.94069484471381,-80.2447836974291
Florida,Miami Lakes,8000 NW 154th St,33016,(305) 818-7448,25.91286867175168,-80.33097373487183
Florida,Minneola,1677 N Hancock Rd,34715,(352) 717-2041,28.5912617,-81.722554
Florida,Miramar,12581 Miramar Pkwy,33027,(754) 764-6496,25.9790774,-80.3136846
Florida,Miramar,3231 SW 160th Ave,33027,(954) 437-2591,25.98021333798026,-80.35695227086677
Florida,Mount Dora,19025 US Highway 441,32757,(352) 735-1983,28.8247207707714,-81.6407336110451
Florida,Naples,2085 Tamiami Trl N,34102,(239) 732-0033,26.172190655212642,-81.8008488074099
Florida,Naples,6821 Collier Blvd,34114,(239) 530-3199,26.065699206437515,-81.69863948548627
Florida,Naples,9100 Strada Pl,34108,(239) 254-1292,26.2540150779146,-81.80010959109882
Florida,New Port Richey,3286 Word Way,34655,,28.205280359025913,-82.66658183775716
Florida,New Smyrna Beach,1796 Sr 44,32168,(386) 957-5041,29.014568662649307,-80.94103078859412
Florida,North Miami,14776 Biscayne Blvd,33181,(305) 947-2779,25.912530237601935,-80.15779178613366
Florida,North Miami Beach,886 N Miami Beach Blvd,33162,(786) 463-0036,25.92685146252067,-80.18261514293665
Florida,North Port,17019 Tamiami Trl,34287,(941) 423-2969,27.0373333139289,-82.21619476901435
Florida,Ocala,2645 SW College Rd,34471,(352) 237-3553,29.16710004882106,-82.16838951135895
Florida,Ocala,4916 E Silver Springs Blvd,34470,(352) 619-2668,29.209181337764026,-82.06718569503086
Florida,Ocoee,10149 W Colonial Dr,34761,(407) 298-8120,28.55248571259458,-81.52695894995907
Florida,Odessa,16118 Preserve Marketplace Blvd,33556,(813) 336-7001,28.1880397,-82.55188749999999
Florida,Orange Park,1607 County Road 220,32003,(904) 637-4968,30.10167581328345,-81.71549077000228
Florida,Orange Park,876 Blanding Blvd,32065,(904) 579-7081,30.1425097,-81.76660439999999
Florida,Orlando,11291 E Colonial Dr,32817,(407) 434-0760,28.568491,-81.216386
Florida,Orlando,11513 Regency Village Dr,32821,(321) 677-0187,28.3933146,-81.4864466
Florida,Orlando,11680 University Blvd,32817,(321) 235-3323,28.59717445040509,-81.21645094811504
Florida,Orlando,12278 Narcoossee Rd,32832,(407) 313-2375,28.38689282654763,-81.24501851719663
Florida,Orlando,12648 S Orange Blossom Trl,32837,(407) 251-9858,28.38128403447653,-81.40509368191186
Florida,Orlando,13935 Landstar Blvd,32824,(689) 500-4165,28.3640942,-81.3652098
Florida,Orlando,1700 Sand Lake Rd,32809,(407) 857-6775,28.449446526251123,-81.401904434197
Florida,Orlando,2211 S Orange Ave,32806,(407) 841-5656,28.51678229370115,-81.37613156258294
Florida,Orlando,2610 S Semoran Blvd,32822,(407) 207-4694,28.514208097751705,-81.31064161049198
Florida,Orlando,2850 S Kirkman Rd,32811,(407) 532-8808,28.51208482493836,-81.4597723001491
Florida,Orlando,2903 E Colonial Dr,32803,(407) 228-9514,28.553566990264947,-81.34702351810552
Florida,Orlando,4200 Conroy Rd,32839,(321) 400-6563,28.485121590250447,-81.43154115211485
Florida,Orlando,464 N Alafaya Trl,32828,(407) 208-0778,28.553518098388547,-81.2065740899765
Florida,Orlando,4724 Millenia Plaza Way,32839,(407) 345-9145,28.4929464,-81.428552
Florida,Orlando,6607 S Semoran Blvd,32822,(407) 855-9719,28.46763233493153,-81.3085262453863
Florida,Orlando,7091 Narcoossee Rd,32822,(407) 664-1131,28.4602429,-81.27154
Florida,Orlando,7800 Dr Phillips Blvd,32819,(407) 352-0198,28.450598116327527,-81.48896473246526
Florida,Orlando,9202 Jeff Fuqua Blvd,32827,(407) 856-0651,28.435468,-81.301371
Florida,Ormond Beach,1290 W Granada Blvd,32174,(386) 676-0748,29.26379913634666,-81.10531615000002
Florida,Oviedo,327 E Mitchell Hammock Rd,32765,(407) 365-7274,28.6563537626573,-81.20337892270186
Florida,Palm Beach Gardens,11608 US Highway 1,33408,(561) 249-8093,26.84643482063769,-80.0600246326553
Florida,Palm Beach Gardens,3101 Pga Blvd,33410,(561) 293-7401,26.849052997933818,-80.08514718399839
Florida,Palm Beach Gardens,3539 Northlake Blvd,33403,(561) 249-8102,26.809085096928786,-80.09046670280937
Florida,Palm Beach Gardens,4655 Pga Blvd,33418,(561) 246-3874,26.8387669503795,-80.10890162055227
Florida,Palm Beach Gardens,5240 Donald Ross Rd,33418,(561) 249-8100,26.882546815918126,-80.11550597019061
Florida,Palm Coast,5860 State Road 100 E,32164,(386) 586-7391,29.476297900686486,-81.19619296519619
Florida,Palm Harbor,33121 US Highway 19 N,34684,(727) 683-8407,28.07317466907305,-82.73829771905821
Florida,Panama City,500 E 23rd St,32405,(850) 769-1049,30.188904979055234,-85.65384191932579
Florida,Panama City Beach,100 S Pier Park Dr,32413,(850) 230-6454,30.2238765262339,-85.87220956341471
Florida,Pembroke Pines,11041 Pines Blvd,33026,(954) 437-7824,26.00845191536144,-80.29500487577764
Florida,Pembroke Pines,15880 Pines Blvd,33027,(954) 433-9918,26.00678298241768,-80.35630208374687
Florida,Pembroke Pines,8559 Pines Blvd,33024,(754) 764-7108,26.009552421114265,-80.25738420000017
Florida,Pensacola,1674 E Nine Mile Rd,32514,(850) 417-8892,30.5331001074582,-87.22756728895493
Florida,Pensacola,5100 N 9th Ave,32504,(850) 760-0558,30.47532506503362,-87.2075014343586
Florida,Pinecrest,12227 South Dixie Highway,33156,(786) 231-5106,25.657060492333493,-80.32749741359396
Florida,Pinellas Park,3700 Park Blvd N,33781,(727) 525-2484,27.838771062640056,-82.68466530022113
Florida,Plantation,129 NW 136th Ave,33325,(954) 858-1961,26.12151288234434,-80.33068840393469
Florida,Plantation,1760 N University Dr,33322,(954) 475-9716,26.147295725467927,-80.25632761030568
Florida,Pompano Beach,2390 N Federal Hwy,33062,(954) 781-9070,26.260656561863833,-80.0989099277374
Florida,Port Charlotte,1799 Tamiami Trl,33948,(941) 273-0211,27.006085381963082,-82.1333153861944
Florida,Port Orange,1731 Dunlawton Ave,32127,(386) 767-2100,29.111368109173387,-81.02645685337296
Florida,Port Richey,9203 US Highway 19,34668,(727) 842-9028,28.290810588979053,-82.7119125003145
Florida,Port Saint Lucie,1768 SW Saint Lucie West Blvd,34986,(772) 204-8788,27.31065261994452,-80.4064213527613
Florida,Port St Lucie,10830 SW Tradition Pkwy,34987,(772) 236-1001,27.2638301,-80.4355621
Florida,Saint Augustine,1753 US Highway 1 S,32084,(904) 808-8321,29.869607545074707,-81.3238950019371
Florida,Saint Cloud,4351 13th St,34769,(407) 891-0206,28.252543735911708,-81.31628410921002
Florida,Saint Petersburg,1418 66th St N,33710,(727) 344-3946,27.78555672481624,-82.72892201989964
Florida,Saint Petersburg,3540 4th St N,33704,(727) 525-6247,27.804670053176856,-82.63883005352375
Florida,Saint Petersburg,780 4th St N,33701,(727) 895-6050,27.780081704177878,-82.63874342607483
Florida,Sanford,1805 Wp Ball Blvd,32771,(321) 275-4164,28.800081390859006,-81.33360532729819
Florida,Sanford,277 High Water Lane,32771,(321) 257-2460,28.810635,-81.3498103
Florida,Sanford,3715 S Orlando Dr,32773,(689) 300-5977,28.76127056463143,-81.28432676747644
Florida,Sarasota,1707 S Tamiami Trl,34239,(941) 957-6406,27.318112561862968,-82.52936948450287
Florida,Sarasota,5354 Fruitville Rd,34232,(941) 341-9728,27.337183652426887,-82.46329472015832
Florida,Sarasota,97 N Cattlemen Rd,34243,(941) 359-6757,27.387687815869644,-82.45813989871294
Florida,Sebring,1310 US Hwy 27 N,33870,(863) 451-0082,27.495382546085544,-81.48612498637952
Florida,Seminole,11241 Park Blvd,33772,(727) 319-2089,27.841610023777374,-82.79448579599801
Florida,South Miami,6290 S Dixie Hwy,33143,(305) 668-3831,25.699524794387173,-80.2950114926424
Florida,Stuart,2181 SE Federal Hwy,34994,(772) 220-0116,27.177970512677273,-80.23606648050571
Florida,Stuart,2421 NW Federal Hwy,34994,(772) 692-0889,27.234784718273794,-80.26763416845245
Florida,Sunrise,12801 W Sunrise Blvd,33323,(954) 846-7003,26.15196430736596,-80.32133713152535
Florida,Tallahassee,1498 Apalachee Pkwy,32301,(850) 254-9992,30.436125137414347,-84.25839439999999
Florida,Tallahassee,1801 W Tennessee St,32304,(850) 254-9986,30.448789683802726,-84.31106364035315
Florida,Tallahassee,3425 Thomasville Rd,32308,(850) 894-3137,30.50443578421638,-84.24967576502968
Florida,Tallahassee,699 W Gaines St,32304,(850) 270-5161,30.435230808238924,-84.29270531277308
Florida,Tampa,12827 N Dale Mabry Hwy,33618,(813) 961-1444,28.063586551480032,-82.50338113492035
Florida,Tampa,18019 Highwoods Preserve Pkwy,33647,(813) 977-1520,28.131285257510452,-82.36579343374694
Florida,Tampa,2011 N Dale Mabry Hwy,33607,(813) 877-4169,27.960170100690004,-82.50500973341502
Florida,Tampa,2223 N West Shore Blvd,33607,(813) 422-5134,27.96470755379821,-82.52085684014975
Florida,Tampa,2576 E Fowler Ave,33612,(813) 971-4360,28.05487327921455,-82.42981195716999
Florida,Tampa,309 N West Shore Blvd,33609,(813) 289-9820,27.947462285445706,-82.52393460934178
Florida,Tampa,3696 W Gandy Blvd,33611,(813) 839-7030,27.89343930614048,-82.50586515828377
Florida,Tampa,533 S Howard Ave,33606,(813) 254-6450,27.939684494344494,-82.48338686437711
Florida,Tampa,7002 Gunn Hwy,33625,(813) 925-4408,28.06646553487602,-82.57050848675283
Florida,Tampa,8301 N Dale Mabry Hwy,33614,(813) 734-8066,28.02390935232622,-82.50451272086761
Florida,Tampa,9466 W Linebaugh Ave,33626,(813) 920-0992,28.043494251607253,-82.59037657410455
Florida,Temple Terrace,5114 E Fowler Ave,33617,(813) 513-1002,28.054766978698687,-82.39890702297012
Florida,Titusville,2560 S Washington Ave,32780,(321) 360-7658,28.5846454,-80.8021924
Florida,Valrico,1812 East Highway 60,33594,(813) 502-2001,27.938512710111894,-82.25762957238565
Florida,Vero Beach,5855 20th St,32966,(772) 907-0635,27.638264447032626,-80.44798372741229
Florida,Wellington,1000 S State Road 7,33414,(561) 204-2816,26.66379742394857,-80.20217804662704
Florida,West Melbourne,125 Palm Bay Rd NE,32904,(321) 473-6403,28.036216690508862,-80.66914149368179
Florida,West Palm Beach,2380 Palm Beach Lakes Blvd,33409,(561) 688-8951,26.708201,-80.098556
Florida,West Palm Beach,7000 Okeechobee Blvd,33411,(561) 249-8101,26.706639573007624,-80.15903045767212
Florida,Weston,4477 Weston Rd,33331,(954) 385-1320,26.067591223863595,-80.36310950530807
Florida,Windermere,9100 Conroy Windermere Rd,34786,(407) 909-6267,28.49320603224206,-81.50927760290779
Florida,Winter Garden,13599 W Colonial Dr,34787,(407) 395-3658,28.55160152918486,-81.5853494019243
Florida,Winter Garden,3317 Daniels Rd,34787,(407) 654-4415,28.520862925627803,-81.58684953378031
Florida,Winter Haven,804 Cypress Gardens Blvd,33880,(863) 294-7285,28.003602586341753,-81.71751414785041
Florida,Winter Park,525 S Orlando Ave,32789,(407) 628-3207,28.593627003298938,-81.36531213488999
Florida,Winter Springs,1177 E State Road 434,32708,(689) 689-3021,28.697367670836048,-81.26376727972134
Florida,Winter Springs,5637 Red Bug Lake Rd,32708,(407) 695-0440,28.6469345,-81.2700902
Florida,Yulee,463913 State Road 200,32097,(904) 849-4398,30.625426686831073,-81.54245546990586
Florida,Zephyrhills,7646 Gall Blvd,33541,(813) 701-2356,28.2684738,-82.18811079999999
Georgia,Acworth,3359 Cobb Pkwy NW,30101,(678) 275-2365,34.0522483,-84.7013283
Georgia,Albany,2630 Dawson Rd,31707,(229) 483-0091,31.617004244299196,-84.22186359631252
Georgia,Alpharetta,10910 Haynes Bridge Rd,30022,(678) 893-0236,34.05176246676509,-84.28630241563991
Georgia,Alpharetta,3900 Brookside Pkwy,30022,(470) 235-7321,34.061468,-84.246382
Georgia,Alpharetta,5250 Windward Pkwy,30004,(678) 867-9459,34.09082267722346,-84.27493030209013
Georgia,Athens,165 Alps Rd,30606,(706) 548-7210,33.947373403855124,-83.40882517790988
Georgia,Atlanta,1080 Peachtree St NE,30309,(404) 665-0120,33.783904317392796,-84.38381426251063
Georgia,Atlanta,11700 Spine Rd.,30320,(404) 481-2340,33.64086196735966,-84.42928899766264
Georgia,Atlanta,123 Perimeter Ctr W,30346,(770) 677-5542,33.9278660829241,-84.34403443602827
Georgia,Atlanta,1401 Oxford Rd NE,30307,(404) 855-4990,33.78863733648415,-84.32665965129746
Georgia,Atlanta,1745 Peachtree St NE,30309,(404) 481-2773,33.80081505530346,-84.39220957729816
Georgia,Atlanta,2020 Howell Mill Rd NW,30318,(404) 937-5296,33.8101168,-84.4130441
Georgia,Atlanta,2078 Henderson Mill Rd NE,30345,(678) 281-2072,33.845862658514974,-84.25600602883429
Georgia,Atlanta,2571 Sidney Marcus Blvd NE,30324,(470) 986-1153,33.825622,-84.3653154
Georgia,Atlanta,2810 Paces Ferry Rd SE,30339,(678) 275-2360,33.86555528065659,-84.46936759487068
Georgia,Atlanta,2963 N Druid Hills Rd NE,30329,(404) 929-9907,33.81470652473796,-84.31016554752678
Georgia,Atlanta,2973 Cobb Pkwy SE,30339,(770) 916-0788,33.88102857875902,-84.46140194291598
Georgia,Atlanta,3393 Peachtree Rd,30326,(404) 481-2467,33.845309,-84.36136
Georgia,Atlanta,3424 Piedmont Rd NE,30305,(404) 869-7921,33.84814155240244,-84.37417909201338
Georgia,Atlanta,4400 Ashford Dunwoody Rd NE,30346,(678) 317-0103,33.923801014291904,-84.34114998377137
Georgia,Atlanta,4600 Roswell Rd,30342,(404) 257-1510,33.880831760821536,-84.3809583411045
Georgia,Atlanta,540 17th St NW,30318,(404) 872-6915,33.791027225178105,-84.40703749202919
Georgia,Atlanta,718 Ponce De Leon Ave NE,30306,(404) 685-3531,33.77392179723447,-84.36356532716769
Georgia,Augusta,229 Robert C Daniel Jr Pkwy,30909,(706) 738-4352,33.491083,-82.08011
Georgia,Austell,3999 Austell Rd,30106,(678) 275-2701,33.85553484082516,-84.59929141030743
Georgia,Brunswick,100 Shupe Way,31520,(912) 342-1141,31.23161,-81.499493
Georgia,Buford,2925 Buford Dr,30519,(678) 288-2142,34.0498845117949,-83.99184952461077
Georgia,Buford,3350 Buford Dr,30519,(678) 482-4355,34.0731190716733,-83.9848486165676
Georgia,Calhoun,530 Highway 53 E,30701,(762) 538-2322,34.47550263384319,-84.92685639478206
Georgia,Canton,2026 Cumming Hwy,30115,(678) 880-4203,34.23665147381761,-84.45634731900049
Georgia,Carrollton,814 S Park St,30117,(678) 890-2574,33.5668026,-85.07689649999999
Georgia,Cartersville,405 E Main St,30121,(770) 276-2061,34.16705049651067,-84.7870462220142
Georgia,Chamblee,5001 Peachtree Blvd,30341,(770) 936-8103,33.884570707268836,-84.3158437680495
Georgia,Columbus,3201 Macon Rd,31906,(706) 561-3060,32.48287459988765,-84.94301721165674
Georgia,Columbus,5295 Whittlesey Blvd,31909,(706) 225-5773,32.54176918447279,-84.9503442909704
Georgia,Commerce,30874 US-441 S,30529,(762) 356-8084,34.249905,-83.4605885
Georgia,Conyers,1467 Highway 138 SE,30013,(770) 929-0243,33.65106559068214,-84.00913831622582
Georgia,Covington,3147 US-278 NW,30014,(678) 212-9001,33.6033348,-83.8586899
Georgia,Cumming,905 Market Place Blvd,30041,(678) 456-3065,34.18122085793144,-84.13307816532043
Georgia,Dawsonville,285 Marketplace Blvd,30534,(706) 429-0265,34.3485401,-84.0506016
Georgia,Decatur,198 W Ponce De Leon Ave,30030,(404) 481-2778,33.775353993630354,-84.29870058416805
Georgia,Decatur,2474 Wesley Chapel Rd,30035,(678) 502-7455,33.71532207292566,-84.2151045
Georgia,Douglasville,9380 The Landing Dr,30135,(678) 275-2386,33.727932,-84.737725
Georgia,Duluth,11720 Medlock Bridge Rd,30097,(770) 623-1724,34.06625161052994,-84.1699452439795
Georgia,Duluth,2040 Pleasant Hill Rd,30096,(678) 584-0011,33.95524015106256,-84.1310987699232
Georgia,Duluth,2190 Peachtree Industrial Blvd,30097,(770) 418-9120,34.0214559846354,-84.12027296747647
Georgia,Dunwoody,1614 Mount Vernon Rd,30338,(470) 622-7327,33.9465408169999,-84.33386667055224
Georgia,Dunwoody,8753 Roswell Rd,30350,(470) 514-3530,33.995693278542014,-84.35045425014997
Georgia,East Point,3330 Camp Creek Pkwy,30344,(404) 346-4681,33.65723509187696,-84.4992085118999
Georgia,Fairburn,8045 Senoia Rd,30213,(770) 892-0162,33.535691,-84.577689
Georgia,Fayetteville,1135 Highway 85 N,30214,(770) 892-0169,33.472221612419574,-84.44279131886319
Georgia,Fort Oglethorpe,2989 Battlefield Pkwy,30742,(229) 664-2019,34.9406904,-85.2169112
Georgia,Gainesville,1134 Dawsonville Hwy,30501,(770) 287-0887,34.3032822,-83.858686
Georgia,Gainesville,604 White Sulphur Rd,30501,(678) 707-7184,34.31535853864403,-83.7938320360034
Georgia,Grayson,1860 Grayson Hwy,30017,(470) 706-0116,33.900017,-83.96100299999999
Georgia,Griffin,1440 N Expressway,30223,(678) 408-5078,33.27237356520682,-84.29010913529017
Georgia,Hinesville,806 W Oglethorpe Hwy,31313,(912) 368-0252,31.822523023186836,-81.59896890823387
Georgia,Hiram,4500 Jimmy Lee Smith Pkwy,30141,(678) 275-2359,33.89055891310516,-84.75366235486091
Georgia,Johns Creek,8483 Holcomb Bridge Rd,30022,(484) 535-5615,33.98805851859937,-84.2722299309213
Georgia,Kennesaw,777 Townpark Ln NW,30144,(770) 675-3993,34.03541847770412,-84.57355248098565
Georgia,Kennesaw,954 Ernest W Barrett Pkwy NW,30144,(678) 279-7996,34.00384741990944,-84.57924998900114
Georgia,Lagrange,1509 Lafayette Pkwy,30241,(762) 323-4660,33.04270219705478,-84.97959875302068
Georgia,Lawrenceville,1475 Pleasant Hill Rd,30044,(678) 502-7384,33.94073086057992,-84.12273104662705
Georgia,Lawrenceville,4885 Sugarloaf Pkwy,30044,(678) 985-1012,33.95567904762974,-84.0551910046769
Georgia,Lawrenceville,860 Duluth Hwy,30043,(678) 985-9290,33.9671011440112,-84.02245834910435
